{
"type": "FeatureCollection",
"name": "Municipalities",
"features": [
{ "type": "Feature", "properties": { "name": "Villa San Giovanni", "population": "13747", "province": "RC", "state": "IT" }, "geometry": { "type": "Point", "coordinates": [ 15.63689, 38.21991 ] } },
{ "type": "Feature", "properties": { "name": "Villafranca Tirrena", "population": "8124", "province": "ME", "state": "IT" }, "geometry": { "type": "Point", "coordinates": [ 15.43885, 38.23952 ] } },
{ "type": "Feature", "properties": { "name": "Venetico Superiore", "population": "273", "province": "ME", "state": "IT" }, "geometry": { "type": "Point", "coordinates": [ 15.38119, 38.19307 ] } },
{ "type": "Feature", "properties": { "name": "Varapodio", "population": "2223", "province": "RC", "state": "IT" }, "geometry": { "type": "Point", "coordinates": [ 15.98347, 38.31633 ] } },
{ "type": "Feature", "properties": { "name": "Valdina", "population": "356", "province": "ME", "state": "IT" }, "geometry": { "type": "Point", "coordinates": [ 15.3698, 38.19351 ] } },
{ "type": "Feature", "properties": { "name": "Trunca", "population": "530", "province": "RC", "state": "IT" }, "geometry": { "type": "Point", "coordinates": [ 15.7505, 38.04642 ] } },
{ "type": "Feature", "properties": { "name": "Tritanti", "population": "519", "province": "RC", "state": "IT" }, "geometry": { "type": "Point", "coordinates": [ 16.1014, 38.44872 ] } },
{ "type": "Feature", "properties": { "name": "Torregrotta", "population": "7324", "province": "ME", "state": "IT" }, "geometry": { "type": "Point", "coordinates": [ 15.3501, 38.20262 ] } },
{ "type": "Feature", "properties": { "name": "Terreti", "population": "852", "province": "RC", "state": "IT" }, "geometry": { "type": "Point", "coordinates": [ 15.71149, 38.12079 ] } },
{ "type": "Feature", "properties": { "name": "Terranova Sappo Minulio", "population": "433", "province": "RC", "state": "IT" }, "geometry": { "type": "Point", "coordinates": [ 16.00747, 38.32175 ] } },
{ "type": "Feature", "properties": { "name": "Taurianova", "population": "11676", "province": "RC", "state": "IT" }, "geometry": { "type": "Point", "coordinates": [ 16.01306, 38.35525 ] } },
{ "type": "Feature", "properties": { "name": "Taormina", "population": "5790", "province": "ME", "state": "IT" }, "geometry": { "type": "Point", "coordinates": [ 15.28851, 37.85358 ] } },
{ "type": "Feature", "properties": { "name": "Staiti", "population": "273", "province": "RC", "state": "IT" }, "geometry": { "type": "Point", "coordinates": [ 16.03341, 37.99989 ] } },
{ "type": "Feature", "properties": { "name": "Sparta'", "population": "1315", "province": "ME", "state": "IT" }, "geometry": { "type": "Point", "coordinates": [ 15.53503, 38.29371 ] } },
{ "type": "Feature", "properties": { "name": "Spadafora", "population": "4547", "province": "ME", "state": "IT" }, "geometry": { "type": "Point", "coordinates": [ 15.38178, 38.22349 ] } },
{ "type": "Feature", "properties": { "name": "Solano Superiore", "population": "582", "province": "RC", "state": "IT" }, "geometry": { "type": "Point", "coordinates": [ 15.79928, 38.25231 ] } },
{ "type": "Feature", "properties": { "name": "Solano Inferiore", "population": "512", "province": "RC", "state": "IT" }, "geometry": { "type": "Point", "coordinates": [ 15.79991, 38.25743 ] } },
{ "type": "Feature", "properties": { "name": "Sinopoli", "population": "1972", "province": "RC", "state": "IT" }, "geometry": { "type": "Point", "coordinates": [ 15.8771, 38.26342 ] } },
{ "type": "Feature", "properties": { "name": "Siderno", "population": "15651", "province": "RC", "state": "IT" }, "geometry": { "type": "Point", "coordinates": [ 16.29607, 38.26993 ] } },
{ "type": "Feature", "properties": { "name": "Seminara", "population": "1494", "province": "RC", "state": "IT" }, "geometry": { "type": "Point", "coordinates": [ 15.87025, 38.33603 ] } },
{ "type": "Feature", "properties": { "name": "Scilla", "population": "3402", "province": "RC", "state": "IT" }, "geometry": { "type": "Point", "coordinates": [ 15.71837, 38.25201 ] } },
{ "type": "Feature", "properties": { "name": "Scido", "population": "927", "province": "RC", "state": "IT" }, "geometry": { "type": "Point", "coordinates": [ 15.93251, 38.24439 ] } },
{ "type": "Feature", "properties": { "name": "Scaletta Zanclea", "population": "2578", "province": "ME", "state": "IT" }, "geometry": { "type": "Point", "coordinates": [ 15.46769, 38.04796 ] } },
{ "type": "Feature", "properties": { "name": "Saponara", "population": "1473", "province": "ME", "state": "IT" }, "geometry": { "type": "Point", "coordinates": [ 15.43442, 38.19241 ] } },
{ "type": "Feature", "properties": { "name": "Santo Stefano in Aspromonte", "population": "766", "province": "RC", "state": "IT" }, "geometry": { "type": "Point", "coordinates": [ 15.78983, 38.16909 ] } },
{ "type": "Feature", "properties": { "name": "Sant'Ilario dello Ionio", "population": "345", "province": "RC", "state": "IT" }, "geometry": { "type": "Point", "coordinates": [ 16.19517, 38.21914 ] } },
{ "type": "Feature", "properties": { "name": "Sant'Eufemia d'Aspromonte", "population": "3552", "province": "RC", "state": "IT" }, "geometry": { "type": "Point", "coordinates": [ 15.85669, 38.26314 ] } },
{ "type": "Feature", "properties": { "name": "Santa Teresa di Riva", "population": "7977", "province": "ME", "state": "IT" }, "geometry": { "type": "Point", "coordinates": [ 15.36671, 37.94635 ] } },
{ "type": "Feature", "properties": { "name": "Santa Lucia del Mela", "population": "4084", "province": "ME", "state": "IT" }, "geometry": { "type": "Point", "coordinates": [ 15.28055, 38.14408 ] } },
{ "type": "Feature", "properties": { "name": "Sant'Alessio Siculo", "population": "1265", "province": "ME", "state": "IT" }, "geometry": { "type": "Point", "coordinates": [ 15.34968, 37.92516 ] } },
{ "type": "Feature", "properties": { "name": "Sant'Alessio in Aspromonte", "population": "322", "province": "RC", "state": "IT" }, "geometry": { "type": "Point", "coordinates": [ 15.7573, 38.1722 ] } },
{ "type": "Feature", "properties": { "name": "Santa Cristina d'Aspromonte", "population": "820", "province": "RC", "state": "IT" }, "geometry": { "type": "Point", "coordinates": [ 15.96996, 38.2548 ] } },
{ "type": "Feature", "properties": { "name": "San Roberto", "population": "316", "province": "RC", "state": "IT" }, "geometry": { "type": "Point", "coordinates": [ 15.73594, 38.21114 ] } },
{ "type": "Feature", "properties": { "name": "San Procopio", "population": "514", "province": "RC", "state": "IT" }, "geometry": { "type": "Point", "coordinates": [ 15.89083, 38.28214 ] } },
{ "type": "Feature", "properties": { "name": "San Pier Niceto", "population": "1703", "province": "ME", "state": "IT" }, "geometry": { "type": "Point", "coordinates": [ 15.34982, 38.1605 ] } },
{ "type": "Feature", "properties": { "name": "San Paolo-Cannistrà", "population": "737", "province": "ME", "state": "IT" }, "geometry": { "type": "Point", "coordinates": [ 15.23333, 38.13333 ] } },
{ "type": "Feature", "properties": { "name": "San Pantaleone", "population": "556", "province": "RC", "state": "IT" }, "geometry": { "type": "Point", "coordinates": [ 15.84237, 37.98865 ] } },
{ "type": "Feature", "properties": { "name": "San Martino", "population": "1704", "province": "RC", "state": "IT" }, "geometry": { "type": "Point", "coordinates": [ 15.97634, 38.36157 ] } },
{ "type": "Feature", "properties": { "name": "San Luca", "population": "3699", "province": "RC", "state": "IT" }, "geometry": { "type": "Point", "coordinates": [ 16.06625, 38.14672 ] } },
{ "type": "Feature", "properties": { "name": "San Lorenzo", "population": "281", "province": "RC", "state": "IT" }, "geometry": { "type": "Point", "coordinates": [ 15.8344, 38.01097 ] } },
{ "type": "Feature", "properties": { "name": "Samo", "population": "869", "province": "RC", "state": "IT" }, "geometry": { "type": "Point", "coordinates": [ 16.05933, 38.07399 ] } },
{ "type": "Feature", "properties": { "name": "San Giovanni di Gerace", "population": "534", "province": "RC", "state": "IT" }, "geometry": { "type": "Point", "coordinates": [ 16.2777, 38.36508 ] } },
{ "type": "Feature", "properties": { "name": "San Giorgio Morgeto", "population": "2938", "province": "RC", "state": "IT" }, "geometry": { "type": "Point", "coordinates": [ 16.0879, 38.3919 ] } },
{ "type": "Feature", "properties": { "name": "San Filippo Superiore", "population": "946", "province": "ME", "state": "IT" }, "geometry": { "type": "Point", "coordinates": [ 15.50075, 38.16549 ] } },
{ "type": "Feature", "properties": { "name": "San Filippo del Mela", "population": "2002", "province": "ME", "state": "IT" }, "geometry": { "type": "Point", "coordinates": [ 15.27338, 38.17007 ] } },
{ "type": "Feature", "properties": { "name": "San Ferdinando", "population": "3908", "province": "RC", "state": "IT" }, "geometry": { "type": "Point", "coordinates": [ 15.91877, 38.48403 ] } },
{ "type": "Feature", "properties": { "name": "San Carlo-Condofuri Marina", "population": "4161", "province": "RC", "state": "IT" }, "geometry": { "type": "Point", "coordinates": [ 15.87166, 37.93324 ] } },
{ "type": "Feature", "properties": { "name": "Saline Ioniche", "population": "2463", "province": "RC", "state": "IT" }, "geometry": { "type": "Point", "coordinates": [ 15.71943, 37.93957 ] } },
{ "type": "Feature", "properties": { "name": "Salice", "population": "961", "province": "ME", "state": "IT" }, "geometry": { "type": "Point", "coordinates": [ 15.49593, 38.24994 ] } },
{ "type": "Feature", "properties": { "name": "Rosarno", "population": "12838", "province": "RC", "state": "IT" }, "geometry": { "type": "Point", "coordinates": [ 15.97956, 38.48717 ] } },
{ "type": "Feature", "properties": { "name": "Rodì", "population": "1436", "province": "ME", "state": "IT" }, "geometry": { "type": "Point", "coordinates": [ 15.16933, 38.10823 ] } },
{ "type": "Feature", "properties": { "name": "Roccavaldina", "population": "709", "province": "ME", "state": "IT" }, "geometry": { "type": "Point", "coordinates": [ 15.37402, 38.18296 ] } },
{ "type": "Feature", "properties": { "name": "Roccalumera", "population": "3696", "province": "ME", "state": "IT" }, "geometry": { "type": "Point", "coordinates": [ 15.39439, 37.97554 ] } },
{ "type": "Feature", "properties": { "name": "Roccaforte del Greco", "population": "520", "province": "RC", "state": "IT" }, "geometry": { "type": "Point", "coordinates": [ 15.89198, 38.04751 ] } },
{ "type": "Feature", "properties": { "name": "Rizziconi", "population": "4108", "province": "RC", "state": "IT" }, "geometry": { "type": "Point", "coordinates": [ 15.95974, 38.40994 ] } },
{ "type": "Feature", "properties": { "name": "Riposto", "population": "11719", "province": "CT", "state": "IT" }, "geometry": { "type": "Point", "coordinates": [ 15.20576, 37.73183 ] } },
{ "type": "Feature", "properties": { "name": "Reggio Calabria", "population": "169140", "province": "RC", "state": "IT" }, "geometry": { "type": "Point", "coordinates": [ 15.66129, 38.11047 ] } },
{ "type": "Feature", "properties": { "name": "Prunella", "population": "657", "province": "RC", "state": "IT" }, "geometry": { "type": "Point", "coordinates": [ 15.79536, 37.94051 ] } },
{ "type": "Feature", "properties": { "name": "Portigliola", "population": "365", "province": "RC", "state": "IT" }, "geometry": { "type": "Point", "coordinates": [ 16.20287, 38.22712 ] } },
{ "type": "Feature", "properties": { "name": "Polistena", "population": "9672", "province": "RC", "state": "IT" }, "geometry": { "type": "Point", "coordinates": [ 16.0733, 38.40544 ] } },
{ "type": "Feature", "properties": { "name": "Platì", "population": "2076", "province": "RC", "state": "IT" }, "geometry": { "type": "Point", "coordinates": [ 16.0453, 38.22149 ] } },
{ "type": "Feature", "properties": { "name": "Piedimonte Etneo", "population": "3381", "province": "CT", "state": "IT" }, "geometry": { "type": "Point", "coordinates": [ 15.17516, 37.80677 ] } },
{ "type": "Feature", "properties": { "name": "Pellaro", "population": "13000", "province": "RC", "state": "IT" }, "geometry": { "type": "Point", "coordinates": [ 15.65, 38.01667 ] } },
{ "type": "Feature", "properties": { "name": "Pavigliana", "population": "1088", "province": "RC", "state": "IT" }, "geometry": { "type": "Point", "coordinates": [ 15.72108, 38.10721 ] } },
{ "type": "Feature", "properties": { "name": "Palmi", "population": "18556", "province": "RC", "state": "IT" }, "geometry": { "type": "Point", "coordinates": [ 15.85155, 38.35943 ] } },
{ "type": "Feature", "properties": { "name": "Palizzi Marina", "population": "1647", "province": "RC", "state": "IT" }, "geometry": { "type": "Point", "coordinates": [ 15.97927, 37.91995 ] } },
{ "type": "Feature", "properties": { "name": "Palizzi", "population": "307", "province": "RC", "state": "IT" }, "geometry": { "type": "Point", "coordinates": [ 15.9867, 37.96667 ] } },
{ "type": "Feature", "properties": { "name": "Pagliara", "population": "462", "province": "ME", "state": "IT" }, "geometry": { "type": "Point", "coordinates": [ 15.35969, 37.98546 ] } },
{ "type": "Feature", "properties": { "name": "Nunziata", "population": "1606", "province": "CT", "state": "IT" }, "geometry": { "type": "Point", "coordinates": [ 15.17058, 37.75858 ] } },
{ "type": "Feature", "properties": { "name": "Novara di Sicilia", "population": "906", "province": "ME", "state": "IT" }, "geometry": { "type": "Point", "coordinates": [ 15.13134, 38.01538 ] } },
{ "type": "Feature", "properties": { "name": "Nizza di Sicilia", "population": "3615", "province": "ME", "state": "IT" }, "geometry": { "type": "Point", "coordinates": [ 15.40956, 37.99081 ] } },
{ "type": "Feature", "properties": { "name": "Nicotera", "population": "4831", "province": "VV", "state": "IT" }, "geometry": { "type": "Point", "coordinates": [ 15.93584, 38.54915 ] } },
{ "type": "Feature", "properties": { "name": "Motta San Giovanni", "population": "1857", "province": "RC", "state": "IT" }, "geometry": { "type": "Point", "coordinates": [ 15.71262, 38.01027 ] } },
{ "type": "Feature", "properties": { "name": "Mosorrofa", "population": "1830", "province": "RC", "state": "IT" }, "geometry": { "type": "Point", "coordinates": [ 15.71259, 38.095 ] } },
{ "type": "Feature", "properties": { "name": "Montebello Jonico", "population": "259", "province": "RC", "state": "IT" }, "geometry": { "type": "Point", "coordinates": [ 15.758, 37.98277 ] } },
{ "type": "Feature", "properties": { "name": "Mongiuffi Melia", "population": "783", "province": "ME", "state": "IT" }, "geometry": { "type": "Point", "coordinates": [ 15.27539, 37.90336 ] } },
{ "type": "Feature", "properties": { "name": "Monforte Marina", "population": "882", "province": "ME", "state": "IT" }, "geometry": { "type": "Point", "coordinates": [ 15.33681, 38.20612 ] } },
{ "type": "Feature", "properties": { "name": "Monforte San Giorgio", "population": "1365", "province": "ME", "state": "IT" }, "geometry": { "type": "Point", "coordinates": [ 15.38132, 38.15733 ] } },
{ "type": "Feature", "properties": { "name": "Molochio", "population": "2643", "province": "RC", "state": "IT" }, "geometry": { "type": "Point", "coordinates": [ 16.03141, 38.30789 ] } },
{ "type": "Feature", "properties": { "name": "Mili San Pietro", "population": "551", "province": "ME", "state": "IT" }, "geometry": { "type": "Point", "coordinates": [ 15.48857, 38.12641 ] } },
{ "type": "Feature", "properties": { "name": "Milazzo", "population": "31771", "province": "ME", "state": "IT" }, "geometry": { "type": "Point", "coordinates": [ 15.24023, 38.22008 ] } },
{ "type": "Feature", "properties": { "name": "Messina", "population": "219948", "province": "ME", "state": "IT" }, "geometry": { "type": "Point", "coordinates": [ 15.55256, 38.19394 ] } },
{ "type": "Feature", "properties": { "name": "Messignadi", "population": "1183", "province": "RC", "state": "IT" }, "geometry": { "type": "Point", "coordinates": [ 15.99642, 38.29964 ] } },
{ "type": "Feature", "properties": { "name": "Merì", "population": "1988", "province": "ME", "state": "IT" }, "geometry": { "type": "Point", "coordinates": [ 15.2497, 38.1663 ] } },
{ "type": "Feature", "properties": { "name": "Melito di Porto Salvo", "population": "9663", "province": "RC", "state": "IT" }, "geometry": { "type": "Point", "coordinates": [ 15.7499, 37.92629 ] } },
{ "type": "Feature", "properties": { "name": "Melicucco", "population": "4599", "province": "RC", "state": "IT" }, "geometry": { "type": "Point", "coordinates": [ 16.05748, 38.43298 ] } },
{ "type": "Feature", "properties": { "name": "Melicuccà", "population": "953", "province": "RC", "state": "IT" }, "geometry": { "type": "Point", "coordinates": [ 15.88153, 38.30311 ] } },
{ "type": "Feature", "properties": { "name": "Mascali", "population": "9377", "province": "CT", "state": "IT" }, "geometry": { "type": "Point", "coordinates": [ 15.19662, 37.75794 ] } },
{ "type": "Feature", "properties": { "name": "Martone", "population": "551", "province": "RC", "state": "IT" }, "geometry": { "type": "Point", "coordinates": [ 16.288, 38.35353 ] } },
{ "type": "Feature", "properties": { "name": "Marina di San Lorenzo", "population": "558", "province": "RC", "state": "IT" }, "geometry": { "type": "Point", "coordinates": [ 15.8317, 37.921 ] } },
{ "type": "Feature", "properties": { "name": "Marina di Gioiosa Ionica", "population": "5756", "province": "RC", "state": "IT" }, "geometry": { "type": "Point", "coordinates": [ 16.33148, 38.30159 ] } },
{ "type": "Feature", "properties": { "name": "Mandanici", "population": "585", "province": "ME", "state": "IT" }, "geometry": { "type": "Point", "coordinates": [ 15.31669, 38.00356 ] } },
{ "type": "Feature", "properties": { "name": "Mammola", "population": "2225", "province": "RC", "state": "IT" }, "geometry": { "type": "Point", "coordinates": [ 16.23871, 38.36262 ] } },
{ "type": "Feature", "properties": { "name": "Locri", "population": "10486", "province": "RC", "state": "IT" }, "geometry": { "type": "Point", "coordinates": [ 16.25957, 38.23868 ] } },
{ "type": "Feature", "properties": { "name": "Linguaglossa", "population": "5234", "province": "CT", "state": "IT" }, "geometry": { "type": "Point", "coordinates": [ 15.13774, 37.84243 ] } },
{ "type": "Feature", "properties": { "name": "Letojanni", "population": "2699", "province": "ME", "state": "IT" }, "geometry": { "type": "Point", "coordinates": [ 15.30735, 37.8805 ] } },
{ "type": "Feature", "properties": { "name": "Lazzaro", "population": "3041", "province": "RC", "state": "IT" }, "geometry": { "type": "Point", "coordinates": [ 15.66511, 37.97276 ] } },
{ "type": "Feature", "properties": { "name": "Laureana di Borrello", "population": "4852", "province": "RC", "state": "IT" }, "geometry": { "type": "Point", "coordinates": [ 16.08429, 38.49215 ] } },
{ "type": "Feature", "properties": { "name": "Larderia", "population": "2478", "province": "ME", "state": "IT" }, "geometry": { "type": "Point", "coordinates": [ 15.50287, 38.14101 ] } },
{ "type": "Feature", "properties": { "name": "Laganadi", "population": "245", "province": "RC", "state": "IT" }, "geometry": { "type": "Point", "coordinates": [ 15.74133, 38.17391 ] } },
{ "type": "Feature", "properties": { "name": "La Gala", "population": "844", "province": "ME", "state": "IT" }, "geometry": { "type": "Point", "coordinates": [ 15.23089, 38.11802 ] } },
{ "type": "Feature", "properties": { "name": "Itala", "population": "483", "province": "ME", "state": "IT" }, "geometry": { "type": "Point", "coordinates": [ 15.43706, 38.05144 ] } },
{ "type": "Feature", "properties": { "name": "Grotteria", "population": "510", "province": "RC", "state": "IT" }, "geometry": { "type": "Point", "coordinates": [ 16.26522, 38.36509 ] } },
{ "type": "Feature", "properties": { "name": "Gioiosa Ionica", "population": "5849", "province": "RC", "state": "IT" }, "geometry": { "type": "Point", "coordinates": [ 16.30407, 38.32723 ] } },
{ "type": "Feature", "properties": { "name": "Gioia Tauro", "population": "18769", "province": "RC", "state": "IT" }, "geometry": { "type": "Point", "coordinates": [ 15.8975, 38.4251 ] } },
{ "type": "Feature", "properties": { "name": "Giffone", "population": "1881", "province": "RC", "state": "IT" }, "geometry": { "type": "Point", "coordinates": [ 16.14898, 38.43957 ] } },
{ "type": "Feature", "properties": { "name": "Giardini-Naxos", "population": "6802", "province": "ME", "state": "IT" }, "geometry": { "type": "Point", "coordinates": [ 15.26713, 37.82755 ] } },
{ "type": "Feature", "properties": { "name": "Gesso", "population": "549", "province": "ME", "state": "IT" }, "geometry": { "type": "Point", "coordinates": [ 15.46865, 38.23531 ] } },
{ "type": "Feature", "properties": { "name": "Gerace", "population": "1043", "province": "RC", "state": "IT" }, "geometry": { "type": "Point", "coordinates": [ 16.2207, 38.27137 ] } },
{ "type": "Feature", "properties": { "name": "Gallodoro", "population": "378", "province": "ME", "state": "IT" }, "geometry": { "type": "Point", "coordinates": [ 15.29359, 37.90206 ] } },
{ "type": "Feature", "properties": { "name": "Galatro", "population": "1769", "province": "RC", "state": "IT" }, "geometry": { "type": "Point", "coordinates": [ 16.1084, 38.46067 ] } },
{ "type": "Feature", "properties": { "name": "Gaggi", "population": "3093", "province": "ME", "state": "IT" }, "geometry": { "type": "Point", "coordinates": [ 15.22126, 37.85995 ] } },
{ "type": "Feature", "properties": { "name": "Furci Siculo", "population": "2956", "province": "ME", "state": "IT" }, "geometry": { "type": "Point", "coordinates": [ 15.37763, 37.96159 ] } },
{ "type": "Feature", "properties": { "name": "Francavilla di Sicilia", "population": "3866", "province": "ME", "state": "IT" }, "geometry": { "type": "Point", "coordinates": [ 15.13821, 37.90197 ] } },
{ "type": "Feature", "properties": { "name": "Fossato Ionico-Fossatello-San Luca Marcelluzzo", "population": "1062", "province": "RC", "state": "IT" }, "geometry": { "type": "Point", "coordinates": [ 15.76302, 38.01065 ] } },
{ "type": "Feature", "properties": { "name": "Forza d'Agrò", "population": "516", "province": "ME", "state": "IT" }, "geometry": { "type": "Point", "coordinates": [ 15.33409, 37.91539 ] } },
{ "type": "Feature", "properties": { "name": "Fondachello", "population": "752", "province": "ME", "state": "IT" }, "geometry": { "type": "Point", "coordinates": [ 15.35617, 38.21635 ] } },
{ "type": "Feature", "properties": { "name": "Fiumefreddo Sicilia", "population": "9483", "province": "CT", "state": "IT" }, "geometry": { "type": "Point", "coordinates": [ 15.20919, 37.79146 ] } },
{ "type": "Feature", "properties": { "name": "Fiumedinisi", "population": "1198", "province": "ME", "state": "IT" }, "geometry": { "type": "Point", "coordinates": [ 15.38099, 38.02596 ] } },
{ "type": "Feature", "properties": { "name": "Ferruzzano", "population": "302", "province": "RC", "state": "IT" }, "geometry": { "type": "Point", "coordinates": [ 16.08918, 38.03699 ] } },
{ "type": "Feature", "properties": { "name": "Feroleto della Chiesa", "population": "1709", "province": "RC", "state": "IT" }, "geometry": { "type": "Point", "coordinates": [ 16.07012, 38.46609 ] } },
{ "type": "Feature", "properties": { "name": "Faro Superiore", "population": "2586", "province": "ME", "state": "IT" }, "geometry": { "type": "Point", "coordinates": [ 15.58268, 38.26794 ] } },
{ "type": "Feature", "properties": { "name": "Drosi", "population": "813", "province": "RC", "state": "IT" }, "geometry": { "type": "Point", "coordinates": [ 15.95711, 38.42552 ] } },
{ "type": "Feature", "properties": { "name": "Delianuova", "population": "3436", "province": "RC", "state": "IT" }, "geometry": { "type": "Point", "coordinates": [ 15.91714, 38.23587 ] } },
{ "type": "Feature", "properties": { "name": "Cosoleto", "population": "399", "province": "RC", "state": "IT" }, "geometry": { "type": "Point", "coordinates": [ 15.92814, 38.27483 ] } },
{ "type": "Feature", "properties": { "name": "Condrò", "population": "402", "province": "ME", "state": "IT" }, "geometry": { "type": "Point", "coordinates": [ 15.3266, 38.17375 ] } },
{ "type": "Feature", "properties": { "name": "Condofuri", "population": "237", "province": "RC", "state": "IT" }, "geometry": { "type": "Point", "coordinates": [ 15.8577, 38.00447 ] } },
{ "type": "Feature", "properties": { "name": "Cittanova", "population": "9368", "province": "RC", "state": "IT" }, "geometry": { "type": "Point", "coordinates": [ 16.07898, 38.35431 ] } },
{ "type": "Feature", "properties": { "name": "Cinque Frondi", "population": "5988", "province": "RC", "state": "IT" }, "geometry": { "type": "Point", "coordinates": [ 16.0842, 38.41618 ] } },
{ "type": "Feature", "properties": { "name": "Ciminà", "population": "507", "province": "RC", "state": "IT" }, "geometry": { "type": "Point", "coordinates": [ 16.14023, 38.24618 ] } },
{ "type": "Feature", "properties": { "name": "Chorio", "population": "549", "province": "RC", "state": "IT" }, "geometry": { "type": "Point", "coordinates": [ 15.81224, 37.98644 ] } },
{ "type": "Feature", "properties": { "name": "Ceramida-Pellegrina", "population": "1418", "province": "RC", "state": "IT" }, "geometry": { "type": "Point", "coordinates": [ 15.82572, 38.29667 ] } },
{ "type": "Feature", "properties": { "name": "Castroreale", "population": "663", "province": "ME", "state": "IT" }, "geometry": { "type": "Point", "coordinates": [ 15.21012, 38.09857 ] } },
{ "type": "Feature", "properties": { "name": "Castiglione di Sicilia", "population": "1817", "province": "CT", "state": "IT" }, "geometry": { "type": "Point", "coordinates": [ 15.12156, 37.8815 ] } },
{ "type": "Feature", "properties": { "name": "Castelmola", "population": "475", "province": "ME", "state": "IT" }, "geometry": { "type": "Point", "coordinates": [ 15.27713, 37.85829 ] } },
{ "type": "Feature", "properties": { "name": "Castellace", "population": "508", "province": "RC", "state": "IT" }, "geometry": { "type": "Point", "coordinates": [ 15.9396, 38.31676 ] } },
{ "type": "Feature", "properties": { "name": "Castanea delle Furie", "population": "1888", "province": "ME", "state": "IT" }, "geometry": { "type": "Point", "coordinates": [ 15.52178, 38.26165 ] } },
{ "type": "Feature", "properties": { "name": "Casignana", "population": "518", "province": "RC", "state": "IT" }, "geometry": { "type": "Point", "coordinates": [ 16.0899, 38.10187 ] } },
{ "type": "Feature", "properties": { "name": "Casalvecchio Siculo", "population": "423", "province": "ME", "state": "IT" }, "geometry": { "type": "Point", "coordinates": [ 15.32371, 37.9585 ] } },
{ "type": "Feature", "properties": { "name": "Careri", "population": "684", "province": "RC", "state": "IT" }, "geometry": { "type": "Point", "coordinates": [ 16.11614, 38.17741 ] } },
{ "type": "Feature", "properties": { "name": "Cardeto", "population": "472", "province": "RC", "state": "IT" }, "geometry": { "type": "Point", "coordinates": [ 15.76577, 38.0844 ] } },
{ "type": "Feature", "properties": { "name": "Caraffa del Bianco", "population": "515", "province": "RC", "state": "IT" }, "geometry": { "type": "Point", "coordinates": [ 16.08766, 38.09259 ] } },
{ "type": "Feature", "properties": { "name": "Canolo", "population": "221", "province": "RC", "state": "IT" }, "geometry": { "type": "Point", "coordinates": [ 16.1999, 38.31497 ] } },
{ "type": "Feature", "properties": { "name": "Calatabiano", "population": "4102", "province": "CT", "state": "IT" }, "geometry": { "type": "Point", "coordinates": [ 15.23069, 37.82049 ] } },
{ "type": "Feature", "properties": { "name": "Calanna", "population": "214", "province": "RC", "state": "IT" }, "geometry": { "type": "Point", "coordinates": [ 15.72293, 38.18457 ] } },
{ "type": "Feature", "properties": { "name": "Bruzzano Zeffirio", "population": "894", "province": "RC", "state": "IT" }, "geometry": { "type": "Point", "coordinates": [ 16.0826, 38.01327 ] } },
{ "type": "Feature", "properties": { "name": "Brancaleone", "population": "3882", "province": "RC", "state": "IT" }, "geometry": { "type": "Point", "coordinates": [ 16.1004, 37.96297 ] } },
{ "type": "Feature", "properties": { "name": "Brancaleone-Marina", "population": "3053", "province": "RC", "state": "IT" }, "geometry": { "type": "Point", "coordinates": [ 16.1, 37.96667 ] } },
{ "type": "Feature", "properties": { "name": "Bova Marina", "population": "3901", "province": "RC", "state": "IT" }, "geometry": { "type": "Point", "coordinates": [ 15.91736, 37.93503 ] } },
{ "type": "Feature", "properties": { "name": "Bovalino Superiore", "population": "8418", "province": "RC", "state": "IT" }, "geometry": { "type": "Point", "coordinates": [ 16.15849, 38.16905 ] } },
{ "type": "Feature", "properties": { "name": "Bovalino", "population": "7514", "province": "RC", "state": "IT" }, "geometry": { "type": "Point", "coordinates": [ 16.17232, 38.15376 ] } },
{ "type": "Feature", "properties": { "name": "Bianco", "population": "3543", "province": "RC", "state": "IT" }, "geometry": { "type": "Point", "coordinates": [ 16.15159, 38.0917 ] } },
{ "type": "Feature", "properties": { "name": "Benestare", "population": "850", "province": "RC", "state": "IT" }, "geometry": { "type": "Point", "coordinates": [ 16.139, 38.18487 ] } },
{ "type": "Feature", "properties": { "name": "Barritteri", "population": "727", "province": "RC", "state": "IT" }, "geometry": { "type": "Point", "coordinates": [ 15.8489, 38.32964 ] } },
{ "type": "Feature", "properties": { "name": "Barcellona Pozzo di Gotto", "population": "34598", "province": "ME", "state": "IT" }, "geometry": { "type": "Point", "coordinates": [ 15.21469, 38.14772 ] } },
{ "type": "Feature", "properties": { "name": "Bagnara Calabra", "population": "8505", "province": "RC", "state": "IT" }, "geometry": { "type": "Point", "coordinates": [ 15.80591, 38.28778 ] } },
{ "type": "Feature", "properties": { "name": "Bagaladi", "population": "931", "province": "RC", "state": "IT" }, "geometry": { "type": "Point", "coordinates": [ 15.82152, 38.0256 ] } },
{ "type": "Feature", "properties": { "name": "Bafia", "population": "643", "province": "ME", "state": "IT" }, "geometry": { "type": "Point", "coordinates": [ 15.20529, 38.07447 ] } },
{ "type": "Feature", "properties": { "name": "Ardore Marina", "population": "3580", "province": "RC", "state": "IT" }, "geometry": { "type": "Point", "coordinates": [ 16.2, 38.16667 ] } },
{ "type": "Feature", "properties": { "name": "Ardore", "population": "447", "province": "RC", "state": "IT" }, "geometry": { "type": "Point", "coordinates": [ 16.16734, 38.19173 ] } },
{ "type": "Feature", "properties": { "name": "Antonimina", "population": "506", "province": "RC", "state": "IT" }, "geometry": { "type": "Point", "coordinates": [ 16.14824, 38.27298 ] } },
{ "type": "Feature", "properties": { "name": "Antillo", "population": "912", "province": "ME", "state": "IT" }, "geometry": { "type": "Point", "coordinates": [ 15.24029, 37.97937 ] } },
{ "type": "Feature", "properties": { "name": "Anoia Superiore", "population": "1114", "province": "RC", "state": "IT" }, "geometry": { "type": "Point", "coordinates": [ 16.0974, 38.43144 ] } },
{ "type": "Feature", "properties": { "name": "Anoia Inferiore", "population": "1064", "province": "RC", "state": "IT" }, "geometry": { "type": "Point", "coordinates": [ 16.0794, 38.43618 ] } },
{ "type": "Feature", "properties": { "name": "Amato", "population": "1086", "province": "RC", "state": "IT" }, "geometry": { "type": "Point", "coordinates": [ 16.13333, 38.38333 ] } },
{ "type": "Feature", "properties": { "name": "Alì", "population": "778", "province": "ME", "state": "IT" }, "geometry": { "type": "Point", "coordinates": [ 15.4191, 38.02678 ] } },
{ "type": "Feature", "properties": { "name": "Agnana Calabra", "population": "543", "province": "RC", "state": "IT" }, "geometry": { "type": "Point", "coordinates": [ 16.22718, 38.30206 ] } },
{ "type": "Feature", "properties": { "name": "Africo Vecchio", "population": "3349", "province": "RC", "state": "IT" }, "geometry": { "type": "Point", "coordinates": [ 15.98333, 38.06667 ] } },
{ "type": "Feature", "properties": { "name": "Motta Camastra", "population": "587", "province": "ME", "state": "IT" }, "geometry": { "type": "Point", "coordinates": [ 15.17008, 37.89431 ] } },
{ "type": "Feature", "properties": { "name": "Africo Nuovo", "population": "3210", "province": "RC", "state": "IT" }, "geometry": { "type": "Point", "coordinates": [ 16.1332, 38.05067 ] } },
{ "type": "Feature", "properties": { "name": "Fiumara", "population": "1201", "province": "RC", "state": "IT" }, "geometry": { "type": "Point", "coordinates": [ 15.69369, 38.21267 ] } },
{ "type": "Feature", "properties": { "name": "Roghudi", "population": "1066", "province": "RC", "state": "IT" }, "geometry": { "type": "Point", "coordinates": [ 15.76537, 37.92499 ] } },
{ "type": "Feature", "properties": { "name": "Fondachelli-Fantina", "population": "1235", "province": "ME", "state": "IT" }, "geometry": { "type": "Point", "coordinates": [ 15.17519, 37.98476 ] } },
{ "type": "Feature", "properties": { "name": "Bova", "population": "238", "province": "RC", "state": "IT" }, "geometry": { "type": "Point", "coordinates": [ 15.9319, 37.99507 ] } },
{ "type": "Feature", "properties": { "name": "Gualtieri Sicaminò", "population": "1475", "province": "ME", "state": "IT" }, "geometry": { "type": "Point", "coordinates": [ 15.31699, 38.16267 ] } },
{ "type": "Feature", "properties": { "name": "Roccafiorita", "population": "228", "province": "ME", "state": "IT" }, "geometry": { "type": "Point", "coordinates": [ 15.26739, 37.93086 ] } },
{ "type": "Feature", "properties": { "name": "Savoca", "population": "156", "province": "ME", "state": "IT" }, "geometry": { "type": "Point", "coordinates": [ 15.34009, 37.95326 ] } },
{ "type": "Feature", "properties": { "name": "Campo Calabro", "population": "4003", "province": "RC", "state": "IT" }, "geometry": { "type": "Point", "coordinates": [ 15.65919, 38.21607 ] } },
{ "type": "Feature", "properties": { "name": "Maropati", "population": "993", "province": "RC", "state": "IT" }, "geometry": { "type": "Point", "coordinates": [ 16.0975, 38.44178 ] } },
{ "type": "Feature", "properties": { "name": "Oppido Mamertina", "population": "3525", "province": "RC", "state": "IT" }, "geometry": { "type": "Point", "coordinates": [ 15.9839, 38.29337 ] } },
{ "type": "Feature", "properties": { "name": "Sant'Agata del Bianco", "population": "630", "province": "RC", "state": "IT" }, "geometry": { "type": "Point", "coordinates": [ 16.08251, 38.09242 ] } },
{ "type": "Feature", "properties": { "name": "Alì Terme", "population": "2440", "province": "ME", "state": "IT" }, "geometry": { "type": "Point", "coordinates": [ 15.42269, 38.00506 ] } },
{ "type": "Feature", "properties": { "name": "Graniti", "population": "1399", "province": "ME", "state": "IT" }, "geometry": { "type": "Point", "coordinates": [ 15.22459, 37.88986 ] } },
{ "type": "Feature", "properties": { "name": "Limina", "population": "900", "province": "ME", "state": "IT" }, "geometry": { "type": "Point", "coordinates": [ 15.27119, 37.94076 ] } },
{ "type": "Feature", "properties": { "name": "Pace del Mela", "population": "3376", "province": "ME", "state": "IT" }, "geometry": { "type": "Point", "coordinates": [ 15.30629, 38.17997 ] } },
{ "type": "Feature", "properties": { "name": "Rometta", "population": "867", "province": "ME", "state": "IT" }, "geometry": { "type": "Point", "coordinates": [ 15.41429, 38.17007 ] } },
{ "type": "Feature", "properties": { "name": "Sant'Anna", "population": "558", "province": "CT", "state": "IT" }, "geometry": { "type": "Point", "coordinates": [ 15.20396, 37.74459 ] } },
{ "type": "Feature", "properties": { "name": "Protonotaro", "population": "602", "province": "ME", "state": "IT" }, "geometry": { "type": "Point", "coordinates": [ 15.19238, 38.12077 ] } },
{ "type": "Feature", "properties": { "name": "Weather Station", "population": "3800", "province": "RC", "state": "IT" }, "geometry": { "type": "Point", "coordinates": [ 16.0997, 37.96136 ] } },
{ "type": "Feature", "properties": { "name": "Rometta Marea", "population": "4835", "province": "ME", "state": "IT" }, "geometry": { "type": "Point", "coordinates": [ 15.40955, 38.23264 ] } },
{ "type": "Feature", "properties": { "name": "Chianchitta-Trappitello", "population": "4029", "province": "ME", "state": "IT" }, "geometry": { "type": "Point", "coordinates": [ 15.25077, 37.82984 ] } },
{ "type": "Feature", "properties": { "name": "Giammoro", "population": "2382", "province": "ME", "state": "IT" }, "geometry": { "type": "Point", "coordinates": [ 15.30666, 38.20372 ] } },
{ "type": "Feature", "properties": { "name": "Guidomandri Marina", "population": "1735", "province": "ME", "state": "IT" }, "geometry": { "type": "Point", "coordinates": [ 15.46303, 38.04528 ] } },
{ "type": "Feature", "properties": { "name": "Amato", "population": "1086", "province": "RC", "state": "IT" }, "geometry": { "type": "Point", "coordinates": [ 15.96097, 38.37355 ] } },
{ "type": "Feature", "properties": { "name": "Pasteria-Lapide", "population": "1081", "province": "CT", "state": "IT" }, "geometry": { "type": "Point", "coordinates": [ 15.22818, 37.81012 ] } },
{ "type": "Feature", "properties": { "name": "Bosco-Belloro", "population": "997", "province": "RC", "state": "IT" }, "geometry": { "type": "Point", "coordinates": [ 16.12611, 38.1417 ] } },
{ "type": "Feature", "properties": { "name": "Bosco Sant'Ippolito", "population": "988", "province": "RC", "state": "IT" }, "geometry": { "type": "Point", "coordinates": [ 16.14078, 38.13538 ] } },
{ "type": "Feature", "properties": { "name": "Archi", "population": "968", "province": "ME", "state": "IT" }, "geometry": { "type": "Point", "coordinates": [ 15.27424, 38.19475 ] } },
{ "type": "Feature", "properties": { "name": "Bosco-Strisce", "population": "918", "province": "RC", "state": "IT" }, "geometry": { "type": "Point", "coordinates": [ 15.93921, 38.46327 ] } },
{ "type": "Feature", "properties": { "name": "Giampilieri", "population": "918", "province": "ME", "state": "IT" }, "geometry": { "type": "Point", "coordinates": [ 15.46991, 38.06821 ] } },
{ "type": "Feature", "properties": { "name": "Curcuraci", "population": "894", "province": "ME", "state": "IT" }, "geometry": { "type": "Point", "coordinates": [ 15.56899, 38.25983 ] } },
{ "type": "Feature", "properties": { "name": "Scarcelli", "population": "868", "province": "ME", "state": "IT" }, "geometry": { "type": "Point", "coordinates": [ 15.43164, 38.20527 ] } },
{ "type": "Feature", "properties": { "name": "Rodia-S.saba", "population": "815", "province": "ME", "state": "IT" }, "geometry": { "type": "Point", "coordinates": [ 15.48551, 38.27316 ] } },
{ "type": "Feature", "properties": { "name": "San Nicola", "population": "739", "province": "RC", "state": "IT" }, "geometry": { "type": "Point", "coordinates": [ 15.69381, 38.21199 ] } },
{ "type": "Feature", "properties": { "name": "Spina", "population": "723", "province": "RC", "state": "IT" }, "geometry": { "type": "Point", "coordinates": [ 15.98758, 38.41808 ] } },
{ "type": "Feature", "properties": { "name": "Sambatello", "population": "703", "province": "RC", "state": "IT" }, "geometry": { "type": "Point", "coordinates": [ 15.69258, 38.17863 ] } },
{ "type": "Feature", "properties": { "name": "Rocchenere", "population": "701", "province": "ME", "state": "IT" }, "geometry": { "type": "Point", "coordinates": [ 15.37618, 37.97428 ] } },
{ "type": "Feature", "properties": { "name": "Caredia-Lacco", "population": "669", "province": "RC", "state": "IT" }, "geometry": { "type": "Point", "coordinates": [ 15.79663, 37.95611 ] } },
{ "type": "Feature", "properties": { "name": "Canalello", "population": "643", "province": "RC", "state": "IT" }, "geometry": { "type": "Point", "coordinates": [ 16.13353, 38.01849 ] } },
{ "type": "Feature", "properties": { "name": "Rina", "population": "634", "province": "ME", "state": "IT" }, "geometry": { "type": "Point", "coordinates": [ 15.33403, 37.94256 ] } },
{ "type": "Feature", "properties": { "name": "Colelli", "population": "594", "province": "RC", "state": "IT" }, "geometry": { "type": "Point", "coordinates": [ 15.72186, 38.21164 ] } },
{ "type": "Feature", "properties": { "name": "Acquaficara", "population": "561", "province": "ME", "state": "IT" }, "geometry": { "type": "Point", "coordinates": [ 15.20711, 38.12907 ] } },
{ "type": "Feature", "properties": { "name": "Masella", "population": "552", "province": "RC", "state": "IT" }, "geometry": { "type": "Point", "coordinates": [ 15.75413, 37.96584 ] } },
{ "type": "Feature", "properties": { "name": "Evangelisti-Rubino", "population": "540", "province": "ME", "state": "IT" }, "geometry": { "type": "Point", "coordinates": [ 15.17324, 37.98412 ] } },
{ "type": "Feature", "properties": { "name": "Santa Venera-Portosalvo", "population": "538", "province": "CT", "state": "IT" }, "geometry": { "type": "Point", "coordinates": [ 15.17223, 37.77897 ] } },
{ "type": "Feature", "properties": { "name": "Mandorleto", "population": "516", "province": "RC", "state": "IT" }, "geometry": { "type": "Point", "coordinates": [ 16.24401, 38.21378 ] } },
{ "type": "Feature", "properties": { "name": "Melia", "population": "374", "province": "ME", "state": "IT" }, "geometry": { "type": "Point", "coordinates": [ 15.27499, 37.90384 ] } },
{ "type": "Feature", "properties": { "name": "Natile Nuovo", "population": "1236", "province": "RC", "state": "IT" }, "geometry": { "type": "Point", "coordinates": [ 16.08527, 38.18583 ] } },
{ "type": "Feature", "properties": { "name": "Itala Marina", "population": "876", "province": "ME", "state": "IT" }, "geometry": { "type": "Point", "coordinates": [ 15.45272, 38.03683 ] } },
{ "type": "Feature", "properties": { "name": "San Pier Marina", "population": "591", "province": "ME", "state": "IT" }, "geometry": { "type": "Point", "coordinates": [ 15.32578, 38.19988 ] } },
{ "type": "Feature", "properties": { "name": "Mazzeo", "population": "569", "province": "ME", "state": "IT" }, "geometry": { "type": "Point", "coordinates": [ 15.3008, 37.87217 ] } },
{ "type": "Feature", "properties": { "name": "Marina di Sant'Ilario dello Ionio", "population": "538", "province": "RC", "state": "IT" }, "geometry": { "type": "Point", "coordinates": [ 16.22639, 38.19818 ] } },
{ "type": "Feature", "properties": { "name": "Chianchitta-Pallio", "population": "2267", "province": "ME", "state": "IT" }, "geometry": { "type": "Point", "coordinates": [ 15.25317, 37.82108 ] } },
{ "type": "Feature", "properties": { "name": "Saponara Marittima", "population": "1594", "province": "ME", "state": "IT" }, "geometry": { "type": "Point", "coordinates": [ 15.42621, 38.23121 ] } },
{ "type": "Feature", "properties": { "name": "Venetico Marina", "population": "3322", "province": "ME", "state": "IT" }, "geometry": { "type": "Point", "coordinates": [ 15.36648, 38.21928 ] } }
]
}
