{
"type": "FeatureCollection",
"name": "Municipalities",
"features": [
{ "type": "Feature", "properties": { "name": "Volpago del Montello", "population": "3888", "province": "TV", "state": "IT" }, "geometry": { "type": "Point", "coordinates": [ 12.11857, 45.7777 ] } },
{ "type": "Feature", "properties": { "name": "Ziracco", "population": "602", "province": "UD", "state": "IT" }, "geometry": { "type": "Point", "coordinates": [ 13.34334, 46.11193 ] } },
{ "type": "Feature", "properties": { "name": "Zimella", "population": "810", "province": "VR", "state": "IT" }, "geometry": { "type": "Point", "coordinates": [ 11.37661, 45.33153 ] } },
{ "type": "Feature", "properties": { "name": "Zevio", "population": "12035", "province": "VR", "state": "IT" }, "geometry": { "type": "Point", "coordinates": [ 11.12929, 45.37209 ] } },
{ "type": "Feature", "properties": { "name": "Zero Branco", "population": "5838", "province": "TV", "state": "IT" }, "geometry": { "type": "Point", "coordinates": [ 12.16381, 45.59952 ] } },
{ "type": "Feature", "properties": { "name": "Zermeghedo", "population": "1245", "province": "VI", "state": "IT" }, "geometry": { "type": "Point", "coordinates": [ 11.37438, 45.47585 ] } },
{ "type": "Feature", "properties": { "name": "Zerman", "population": "819", "province": "TV", "state": "IT" }, "geometry": { "type": "Point", "coordinates": [ 12.2686, 45.57831 ] } },
{ "type": "Feature", "properties": { "name": "Zenson di Piave", "population": "1086", "province": "TV", "state": "IT" }, "geometry": { "type": "Point", "coordinates": [ 12.48913, 45.67971 ] } },
{ "type": "Feature", "properties": { "name": "Zelarino", "population": "5260", "province": "VE", "state": "IT" }, "geometry": { "type": "Point", "coordinates": [ 12.2079, 45.51508 ] } },
{ "type": "Feature", "properties": { "name": "Volta Mantovana", "population": "4491", "province": "MN", "state": "IT" }, "geometry": { "type": "Point", "coordinates": [ 10.65891, 45.32192 ] } },
{ "type": "Feature", "properties": { "name": "Volargne", "population": "1230", "province": "VR", "state": "IT" }, "geometry": { "type": "Point", "coordinates": [ 10.8182, 45.53684 ] } },
{ "type": "Feature", "properties": { "name": "Vittorio Veneto", "population": "24789", "province": "TV", "state": "IT" }, "geometry": { "type": "Point", "coordinates": [ 12.30065, 45.98026 ] } },
{ "type": "Feature", "properties": { "name": "Visome", "population": "682", "province": "BL", "state": "IT" }, "geometry": { "type": "Point", "coordinates": [ 12.20068, 46.11503 ] } },
{ "type": "Feature", "properties": { "name": "Visnadello", "population": "895", "province": "TV", "state": "IT" }, "geometry": { "type": "Point", "coordinates": [ 12.24656, 45.75871 ] } },
{ "type": "Feature", "properties": { "name": "Lancenigo-Villorba", "population": "15265", "province": "TV", "state": "IT" }, "geometry": { "type": "Point", "coordinates": [ 12.25697, 45.71289 ] } },
{ "type": "Feature", "properties": { "name": "Villimpenta", "population": "1426", "province": "MN", "state": "IT" }, "geometry": { "type": "Point", "coordinates": [ 11.0317, 45.14111 ] } },
{ "type": "Feature", "properties": { "name": "Villesse", "population": "1659", "province": "GO", "state": "IT" }, "geometry": { "type": "Point", "coordinates": [ 13.4438, 45.86526 ] } },
{ "type": "Feature", "properties": { "name": "Villa Vicentina", "population": "1270", "province": "UD", "state": "IT" }, "geometry": { "type": "Point", "coordinates": [ 13.39332, 45.81378 ] } },
{ "type": "Feature", "properties": { "name": "Villastrada", "population": "869", "province": "MN", "state": "IT" }, "geometry": { "type": "Point", "coordinates": [ 10.6428, 44.97643 ] } },
{ "type": "Feature", "properties": { "name": "Villarotta", "population": "1372", "province": "RE", "state": "IT" }, "geometry": { "type": "Point", "coordinates": [ 10.74382, 44.92517 ] } },
{ "type": "Feature", "properties": { "name": "Villaorba", "population": "646", "province": "UD", "state": "IT" }, "geometry": { "type": "Point", "coordinates": [ 13.06995, 46.0102 ] } },
{ "type": "Feature", "properties": { "name": "Villanova", "population": "1005", "province": "UD", "state": "IT" }, "geometry": { "type": "Point", "coordinates": [ 12.97084, 46.13226 ] } },
{ "type": "Feature", "properties": { "name": "Villafranca di Verona", "population": "15895", "province": "VR", "state": "IT" }, "geometry": { "type": "Point", "coordinates": [ 10.84462, 45.35405 ] } },
{ "type": "Feature", "properties": { "name": "Villafontana", "population": "590", "province": "VR", "state": "IT" }, "geometry": { "type": "Point", "coordinates": [ 11.08492, 45.29299 ] } },
{ "type": "Feature", "properties": { "name": "Villa del Conte", "population": "2320", "province": "PD", "state": "IT" }, "geometry": { "type": "Point", "coordinates": [ 11.85942, 45.58475 ] } },
{ "type": "Feature", "properties": { "name": "Villabruna-Umin", "population": "1040", "province": "BL", "state": "IT" }, "geometry": { "type": "Point", "coordinates": [ 11.927, 46.05675 ] } },
{ "type": "Feature", "properties": { "name": "Villa Bartolomea", "population": "3221", "province": "VR", "state": "IT" }, "geometry": { "type": "Point", "coordinates": [ 11.3538, 45.15461 ] } },
{ "type": "Feature", "properties": { "name": "Vigonovo-Fontanafredda", "population": "8283", "province": "PN", "state": "IT" }, "geometry": { "type": "Point", "coordinates": [ 12.54707, 45.98927 ] } },
{ "type": "Feature", "properties": { "name": "Vigasio", "population": "6918", "province": "VR", "state": "IT" }, "geometry": { "type": "Point", "coordinates": [ 10.94371, 45.3178 ] } },
{ "type": "Feature", "properties": { "name": "Vidor", "population": "3509", "province": "TV", "state": "IT" }, "geometry": { "type": "Point", "coordinates": [ 12.04517, 45.86659 ] } },
{ "type": "Feature", "properties": { "name": "Vestenanova", "population": "695", "province": "VR", "state": "IT" }, "geometry": { "type": "Point", "coordinates": [ 11.22868, 45.57421 ] } },
{ "type": "Feature", "properties": { "name": "Veronella", "population": "1387", "province": "VR", "state": "IT" }, "geometry": { "type": "Point", "coordinates": [ 11.32582, 45.32378 ] } },
{ "type": "Feature", "properties": { "name": "Verona", "population": "219103", "province": "VR", "state": "IT" }, "geometry": { "type": "Point", "coordinates": [ 10.98444, 45.4299 ] } },
{ "type": "Feature", "properties": { "name": "Venzone", "population": "1334", "province": "UD", "state": "IT" }, "geometry": { "type": "Point", "coordinates": [ 13.13825, 46.33031 ] } },
{ "type": "Feature", "properties": { "name": "Vendoglio-Carvacco", "population": "509", "province": "UD", "state": "IT" }, "geometry": { "type": "Point", "coordinates": [ 13.15278, 46.17889 ] } },
{ "type": "Feature", "properties": { "name": "Vedelago", "population": "3939", "province": "TV", "state": "IT" }, "geometry": { "type": "Point", "coordinates": [ 12.01853, 45.68722 ] } },
{ "type": "Feature", "properties": { "name": "Vazzola", "population": "5283", "province": "TV", "state": "IT" }, "geometry": { "type": "Point", "coordinates": [ 12.40851, 45.83511 ] } },
{ "type": "Feature", "properties": { "name": "Vascon", "population": "854", "province": "TV", "state": "IT" }, "geometry": { "type": "Point", "coordinates": [ 12.2919, 45.7217 ] } },
{ "type": "Feature", "properties": { "name": "Vas", "population": "487", "province": "BL", "state": "IT" }, "geometry": { "type": "Point", "coordinates": [ 11.93579, 45.93804 ] } },
{ "type": "Feature", "properties": { "name": "Varmo", "population": "709", "province": "UD", "state": "IT" }, "geometry": { "type": "Point", "coordinates": [ 12.99005, 45.8863 ] } },
{ "type": "Feature", "properties": { "name": "Varago", "population": "2356", "province": "TV", "state": "IT" }, "geometry": { "type": "Point", "coordinates": [ 12.31083, 45.73726 ] } },
{ "type": "Feature", "properties": { "name": "Vallese", "population": "3091", "province": "VR", "state": "IT" }, "geometry": { "type": "Point", "coordinates": [ 11.08608, 45.32827 ] } },
{ "type": "Feature", "properties": { "name": "Vallà", "population": "2368", "province": "TV", "state": "IT" }, "geometry": { "type": "Point", "coordinates": [ 11.93271, 45.70711 ] } },
{ "type": "Feature", "properties": { "name": "Valeggio sul Mincio", "population": "8641", "province": "VR", "state": "IT" }, "geometry": { "type": "Point", "coordinates": [ 10.73635, 45.35333 ] } },
{ "type": "Feature", "properties": { "name": "Valdobbiadene", "population": "6307", "province": "TV", "state": "IT" }, "geometry": { "type": "Point", "coordinates": [ 11.98245, 45.89689 ] } },
{ "type": "Feature", "properties": { "name": "Vacil", "population": "994", "province": "TV", "state": "IT" }, "geometry": { "type": "Point", "coordinates": [ 12.30906, 45.70981 ] } },
{ "type": "Feature", "properties": { "name": "Udine", "population": "97761", "province": "UD", "state": "IT" }, "geometry": { "type": "Point", "coordinates": [ 13.23715, 46.0693 ] } },
{ "type": "Feature", "properties": { "name": "Turriaco", "population": "2749", "province": "GO", "state": "IT" }, "geometry": { "type": "Point", "coordinates": [ 13.44369, 45.82119 ] } },
{ "type": "Feature", "properties": { "name": "Trivignano Udinese", "population": "944", "province": "UD", "state": "IT" }, "geometry": { "type": "Point", "coordinates": [ 13.34019, 45.94601 ] } },
{ "type": "Feature", "properties": { "name": "Tricesimo", "population": "5590", "province": "UD", "state": "IT" }, "geometry": { "type": "Point", "coordinates": [ 13.21566, 46.16058 ] } },
{ "type": "Feature", "properties": { "name": "Treviso", "population": "77604", "province": "TV", "state": "IT" }, "geometry": { "type": "Point", "coordinates": [ 12.2416, 45.66673 ] } },
{ "type": "Feature", "properties": { "name": "Trevignano", "population": "2179", "province": "TV", "state": "IT" }, "geometry": { "type": "Point", "coordinates": [ 12.06719, 45.7367 ] } },
{ "type": "Feature", "properties": { "name": "Trevenzuolo", "population": "1262", "province": "VR", "state": "IT" }, "geometry": { "type": "Point", "coordinates": [ 10.93386, 45.26974 ] } },
{ "type": "Feature", "properties": { "name": "Treppo Grande", "population": "1129", "province": "UD", "state": "IT" }, "geometry": { "type": "Point", "coordinates": [ 13.1535, 46.19988 ] } },
{ "type": "Feature", "properties": { "name": "Tregnago", "population": "3601", "province": "VR", "state": "IT" }, "geometry": { "type": "Point", "coordinates": [ 11.16421, 45.51397 ] } },
{ "type": "Feature", "properties": { "name": "Trebaseleghe", "population": "7901", "province": "PD", "state": "IT" }, "geometry": { "type": "Point", "coordinates": [ 12.04392, 45.59295 ] } },
{ "type": "Feature", "properties": { "name": "Trasaghis", "population": "469", "province": "UD", "state": "IT" }, "geometry": { "type": "Point", "coordinates": [ 13.07545, 46.28164 ] } },
{ "type": "Feature", "properties": { "name": "Tovena", "population": "614", "province": "TV", "state": "IT" }, "geometry": { "type": "Point", "coordinates": [ 12.1757, 45.97681 ] } },
{ "type": "Feature", "properties": { "name": "Torviscosa", "population": "1886", "province": "UD", "state": "IT" }, "geometry": { "type": "Point", "coordinates": [ 13.2805, 45.82337 ] } },
{ "type": "Feature", "properties": { "name": "Torsa", "population": "880", "province": "UD", "state": "IT" }, "geometry": { "type": "Point", "coordinates": [ 13.11657, 45.87368 ] } },
{ "type": "Feature", "properties": { "name": "Torreano", "population": "939", "province": "UD", "state": "IT" }, "geometry": { "type": "Point", "coordinates": [ 13.42933, 46.12786 ] } },
{ "type": "Feature", "properties": { "name": "Tombolo", "population": "7787", "province": "PD", "state": "IT" }, "geometry": { "type": "Point", "coordinates": [ 11.82435, 45.63916 ] } },
{ "type": "Feature", "properties": { "name": "Tezze", "population": "1716", "province": "VI", "state": "IT" }, "geometry": { "type": "Point", "coordinates": [ 11.36997, 45.53402 ] } },
{ "type": "Feature", "properties": { "name": "Terrossa", "population": "1179", "province": "VR", "state": "IT" }, "geometry": { "type": "Point", "coordinates": [ 11.3186, 45.4634 ] } },
{ "type": "Feature", "properties": { "name": "Terrazzo", "population": "1176", "province": "VR", "state": "IT" }, "geometry": { "type": "Point", "coordinates": [ 11.39485, 45.1726 ] } },
{ "type": "Feature", "properties": { "name": "Zugliano-Terenzano-Cargnacco", "population": "3687", "province": "UD", "state": "IT" }, "geometry": { "type": "Point", "coordinates": [ 13.21694, 46.0075 ] } },
{ "type": "Feature", "properties": { "name": "Teor", "population": "1314", "province": "UD", "state": "IT" }, "geometry": { "type": "Point", "coordinates": [ 13.05608, 45.85416 ] } },
{ "type": "Feature", "properties": { "name": "Tavagnacco", "population": "11638", "province": "UD", "state": "IT" }, "geometry": { "type": "Point", "coordinates": [ 13.22251, 46.10976 ] } },
{ "type": "Feature", "properties": { "name": "Tarzo", "population": "1544", "province": "TV", "state": "IT" }, "geometry": { "type": "Point", "coordinates": [ 12.22917, 45.97711 ] } },
{ "type": "Feature", "properties": { "name": "Tarcento", "population": "6485", "province": "UD", "state": "IT" }, "geometry": { "type": "Point", "coordinates": [ 13.21514, 46.21251 ] } },
{ "type": "Feature", "properties": { "name": "Tamai", "population": "1783", "province": "PN", "state": "IT" }, "geometry": { "type": "Point", "coordinates": [ 12.57187, 45.92427 ] } },
{ "type": "Feature", "properties": { "name": "Talmassons", "population": "4076", "province": "UD", "state": "IT" }, "geometry": { "type": "Point", "coordinates": [ 13.12199, 45.9281 ] } },
{ "type": "Feature", "properties": { "name": "Taipana", "population": "238", "province": "UD", "state": "IT" }, "geometry": { "type": "Point", "coordinates": [ 13.3415, 46.24911 ] } },
{ "type": "Feature", "properties": { "name": "Suzzara", "population": "16571", "province": "MN", "state": "IT" }, "geometry": { "type": "Point", "coordinates": [ 10.74407, 44.99242 ] } },
{ "type": "Feature", "properties": { "name": "Sustinente", "population": "1250", "province": "MN", "state": "IT" }, "geometry": { "type": "Point", "coordinates": [ 11.02178, 45.07096 ] } },
{ "type": "Feature", "properties": { "name": "Susegana", "population": "3414", "province": "TV", "state": "IT" }, "geometry": { "type": "Point", "coordinates": [ 12.25741, 45.85604 ] } },
{ "type": "Feature", "properties": { "name": "Stregna", "population": "58", "province": "UD", "state": "IT" }, "geometry": { "type": "Point", "coordinates": [ 13.57761, 46.12689 ] } },
{ "type": "Feature", "properties": { "name": "Staranzano", "population": "6803", "province": "GO", "state": "IT" }, "geometry": { "type": "Point", "coordinates": [ 13.50226, 45.80233 ] } },
{ "type": "Feature", "properties": { "name": "Spresiano", "population": "10287", "province": "TV", "state": "IT" }, "geometry": { "type": "Point", "coordinates": [ 12.25628, 45.77908 ] } },
{ "type": "Feature", "properties": { "name": "Spineda", "population": "881", "province": "TV", "state": "IT" }, "geometry": { "type": "Point", "coordinates": [ 11.87813, 45.75039 ] } },
{ "type": "Feature", "properties": { "name": "Soverzene", "population": "314", "province": "BL", "state": "IT" }, "geometry": { "type": "Point", "coordinates": [ 12.30301, 46.20331 ] } },
{ "type": "Feature", "properties": { "name": "Sospirolo", "population": "700", "province": "BL", "state": "IT" }, "geometry": { "type": "Point", "coordinates": [ 12.07365, 46.14134 ] } },
{ "type": "Feature", "properties": { "name": "Sona", "population": "4697", "province": "VR", "state": "IT" }, "geometry": { "type": "Point", "coordinates": [ 10.8399, 45.43271 ] } },
{ "type": "Feature", "properties": { "name": "Sommacampagna", "population": "7258", "province": "VR", "state": "IT" }, "geometry": { "type": "Point", "coordinates": [ 10.84382, 45.40528 ] } },
{ "type": "Feature", "properties": { "name": "Solferino", "population": "1767", "province": "MN", "state": "IT" }, "geometry": { "type": "Point", "coordinates": [ 10.56648, 45.37236 ] } },
{ "type": "Feature", "properties": { "name": "Solagna", "population": "1659", "province": "VI", "state": "IT" }, "geometry": { "type": "Point", "coordinates": [ 11.71787, 45.81951 ] } },
{ "type": "Feature", "properties": { "name": "Soave", "population": "5035", "province": "VR", "state": "IT" }, "geometry": { "type": "Point", "coordinates": [ 11.24594, 45.41955 ] } },
{ "type": "Feature", "properties": { "name": "Soave", "population": "1373", "province": "MN", "state": "IT" }, "geometry": { "type": "Point", "coordinates": [ 10.72365, 45.19509 ] } },
{ "type": "Feature", "properties": { "name": "Sirmione", "population": "6818", "province": "BS", "state": "IT" }, "geometry": { "type": "Point", "coordinates": [ 10.60507, 45.49744 ] } },
{ "type": "Feature", "properties": { "name": "Silea", "population": "6077", "province": "TV", "state": "IT" }, "geometry": { "type": "Point", "coordinates": [ 12.29701, 45.65444 ] } },
{ "type": "Feature", "properties": { "name": "Settimo", "population": "1642", "province": "VR", "state": "IT" }, "geometry": { "type": "Point", "coordinates": [ 10.9091, 45.47929 ] } },
{ "type": "Feature", "properties": { "name": "Sernaglia della Battaglia", "population": "3869", "province": "TV", "state": "IT" }, "geometry": { "type": "Point", "coordinates": [ 12.13302, 45.87147 ] } },
{ "type": "Feature", "properties": { "name": "Sermide", "population": "3599", "province": "MN", "state": "IT" }, "geometry": { "type": "Point", "coordinates": [ 11.2929, 45.00349 ] } },
{ "type": "Feature", "properties": { "name": "Seren del Grappa", "population": "1588", "province": "BL", "state": "IT" }, "geometry": { "type": "Point", "coordinates": [ 11.85624, 45.99594 ] } },
{ "type": "Feature", "properties": { "name": "Sedico", "population": "5478", "province": "BL", "state": "IT" }, "geometry": { "type": "Point", "coordinates": [ 12.0933, 46.10563 ] } },
{ "type": "Feature", "properties": { "name": "Sedegliano", "population": "1169", "province": "UD", "state": "IT" }, "geometry": { "type": "Point", "coordinates": [ 12.97734, 46.01396 ] } },
{ "type": "Feature", "properties": { "name": "Scorzè", "population": "8699", "province": "VE", "state": "IT" }, "geometry": { "type": "Point", "coordinates": [ 12.11156, 45.57405 ] } },
{ "type": "Feature", "properties": { "name": "Scomigo", "population": "1222", "province": "TV", "state": "IT" }, "geometry": { "type": "Point", "coordinates": [ 12.32014, 45.94255 ] } },
{ "type": "Feature", "properties": { "name": "Sclaunicco", "population": "548", "province": "UD", "state": "IT" }, "geometry": { "type": "Point", "coordinates": [ 13.13723, 45.97611 ] } },
{ "type": "Feature", "properties": { "name": "Scandolara", "population": "893", "province": "TV", "state": "IT" }, "geometry": { "type": "Point", "coordinates": [ 12.09981, 45.61464 ] } },
{ "type": "Feature", "properties": { "name": "Savorgnano del Torre", "population": "887", "province": "UD", "state": "IT" }, "geometry": { "type": "Point", "coordinates": [ 13.27222, 46.165 ] } },
{ "type": "Feature", "properties": { "name": "Savogna d'Isonzo", "population": "793", "province": "GO", "state": "IT" }, "geometry": { "type": "Point", "coordinates": [ 13.57936, 45.90894 ] } },
{ "type": "Feature", "properties": { "name": "Sarmede", "population": "1075", "province": "TV", "state": "IT" }, "geometry": { "type": "Point", "coordinates": [ 12.38581, 45.97625 ] } },
{ "type": "Feature", "properties": { "name": "San Zenone degli Ezzelini", "population": "6506", "province": "TV", "state": "IT" }, "geometry": { "type": "Point", "coordinates": [ 11.8372, 45.7804 ] } },
{ "type": "Feature", "properties": { "name": "San Vittore", "population": "632", "province": "VR", "state": "IT" }, "geometry": { "type": "Point", "coordinates": [ 11.22203, 45.42959 ] } },
{ "type": "Feature", "properties": { "name": "San Vito di Fagagna", "population": "959", "province": "UD", "state": "IT" }, "geometry": { "type": "Point", "coordinates": [ 13.06569, 46.09103 ] } },
{ "type": "Feature", "properties": { "name": "San Vito", "population": "1543", "province": "TV", "state": "IT" }, "geometry": { "type": "Point", "coordinates": [ 11.91553, 45.75514 ] } },
{ "type": "Feature", "properties": { "name": "San Vendemiano", "population": "8776", "province": "TV", "state": "IT" }, "geometry": { "type": "Point", "coordinates": [ 12.35164, 45.88732 ] } },
{ "type": "Feature", "properties": { "name": "San Valentino", "population": "3277", "province": "UD", "state": "IT" }, "geometry": { "type": "Point", "coordinates": [ 13.41236, 45.79039 ] } },
{ "type": "Feature", "properties": { "name": "Sant'Elena", "population": "838", "province": "TV", "state": "IT" }, "geometry": { "type": "Point", "coordinates": [ 12.33514, 45.62562 ] } },
{ "type": "Feature", "properties": { "name": "Sant'Antonio", "population": "13596", "province": "MN", "state": "IT" }, "geometry": { "type": "Point", "coordinates": [ 10.79381, 45.19649 ] } },
{ "type": "Feature", "properties": { "name": "Sant'Angelo", "population": "1407", "province": "VE", "state": "IT" }, "geometry": { "type": "Point", "coordinates": [ 12.01862, 45.52031 ] } },
{ "type": "Feature", "properties": { "name": "Santandrà", "population": "1102", "province": "TV", "state": "IT" }, "geometry": { "type": "Point", "coordinates": [ 12.20111, 45.74778 ] } },
{ "type": "Feature", "properties": { "name": "Sant'Ambrogio di Valpollicella", "population": "10384", "province": "VR", "state": "IT" }, "geometry": { "type": "Point", "coordinates": [ 10.83618, 45.52089 ] } },
{ "type": "Feature", "properties": { "name": "Sant'Ambrogio", "population": "827", "province": "PD", "state": "IT" }, "geometry": { "type": "Point", "coordinates": [ 12.07861, 45.60611 ] } },
{ "type": "Feature", "properties": { "name": "Santa Maria la Longa", "population": "1229", "province": "UD", "state": "IT" }, "geometry": { "type": "Point", "coordinates": [ 13.28911, 45.93403 ] } },
{ "type": "Feature", "properties": { "name": "Santa Maria In Stelle", "population": "913", "province": "VR", "state": "IT" }, "geometry": { "type": "Point", "coordinates": [ 11.03483, 45.49334 ] } },
{ "type": "Feature", "properties": { "name": "Santa Maria", "population": "994", "province": "UD", "state": "IT" }, "geometry": { "type": "Point", "coordinates": [ 13.16019, 45.96986 ] } },
{ "type": "Feature", "properties": { "name": "Santa Maria di Sala", "population": "2408", "province": "VE", "state": "IT" }, "geometry": { "type": "Point", "coordinates": [ 12.03565, 45.50699 ] } },
{ "type": "Feature", "properties": { "name": "Santa Giustina in Colle", "population": "4069", "province": "PD", "state": "IT" }, "geometry": { "type": "Point", "coordinates": [ 11.90039, 45.57506 ] } },
{ "type": "Feature", "properties": { "name": "Santa Giustina", "population": "4587", "province": "BL", "state": "IT" }, "geometry": { "type": "Point", "coordinates": [ 12.03822, 46.08118 ] } },
{ "type": "Feature", "properties": { "name": "Santa Cristina", "population": "1186", "province": "TV", "state": "IT" }, "geometry": { "type": "Point", "coordinates": [ 12.13903, 45.6435 ] } },
{ "type": "Feature", "properties": { "name": "San Rocco", "population": "619", "province": "VR", "state": "IT" }, "geometry": { "type": "Point", "coordinates": [ 11.0868, 45.55248 ] } },
{ "type": "Feature", "properties": { "name": "San Pietro di Feletto", "population": "4890", "province": "TV", "state": "IT" }, "geometry": { "type": "Point", "coordinates": [ 12.25101, 45.91391 ] } },
{ "type": "Feature", "properties": { "name": "San Pietro al Natisone", "population": "1445", "province": "UD", "state": "IT" }, "geometry": { "type": "Point", "coordinates": [ 13.48296, 46.11444 ] } },
{ "type": "Feature", "properties": { "name": "San Pier d'Isonzo", "population": "1552", "province": "GO", "state": "IT" }, "geometry": { "type": "Point", "coordinates": [ 13.46764, 45.84452 ] } },
{ "type": "Feature", "properties": { "name": "San Pancrazio", "population": "850", "province": "VR", "state": "IT" }, "geometry": { "type": "Point", "coordinates": [ 11.02259, 45.42452 ] } },
{ "type": "Feature", "properties": { "name": "San Michele in Bosco", "population": "539", "province": "MN", "state": "IT" }, "geometry": { "type": "Point", "coordinates": [ 10.57076, 45.11231 ] } },
{ "type": "Feature", "properties": { "name": "San Michele di Piave", "population": "1122", "province": "TV", "state": "IT" }, "geometry": { "type": "Point", "coordinates": [ 12.34634, 45.79667 ] } },
{ "type": "Feature", "properties": { "name": "San Mauro di Saline", "population": "223", "province": "VR", "state": "IT" }, "geometry": { "type": "Point", "coordinates": [ 11.11234, 45.56452 ] } },
{ "type": "Feature", "properties": { "name": "San Martino di Lupari", "population": "10931", "province": "PD", "state": "IT" }, "geometry": { "type": "Point", "coordinates": [ 11.86004, 45.65128 ] } },
{ "type": "Feature", "properties": { "name": "San Martino della Battaglia", "population": "1701", "province": "BS", "state": "IT" }, "geometry": { "type": "Point", "coordinates": [ 10.60053, 45.43832 ] } },
{ "type": "Feature", "properties": { "name": "San Martino Buon Albergo", "population": "11818", "province": "VR", "state": "IT" }, "geometry": { "type": "Point", "coordinates": [ 11.09562, 45.42083 ] } },
{ "type": "Feature", "properties": { "name": "San Lorenzo", "population": "572", "province": "UD", "state": "IT" }, "geometry": { "type": "Point", "coordinates": [ 12.99771, 45.9992 ] } },
{ "type": "Feature", "properties": { "name": "San Leonardo", "population": "113", "province": "UD", "state": "IT" }, "geometry": { "type": "Point", "coordinates": [ 13.53085, 46.11913 ] } },
{ "type": "Feature", "properties": { "name": "Sanguinetto", "population": "3697", "province": "VR", "state": "IT" }, "geometry": { "type": "Point", "coordinates": [ 11.14412, 45.18567 ] } },
{ "type": "Feature", "properties": { "name": "San Giovanni Lupatoto", "population": "20038", "province": "VR", "state": "IT" }, "geometry": { "type": "Point", "coordinates": [ 11.04474, 45.38193 ] } },
{ "type": "Feature", "properties": { "name": "San Giovanni Ilarione", "population": "2604", "province": "VR", "state": "IT" }, "geometry": { "type": "Point", "coordinates": [ 11.23707, 45.51927 ] } },
{ "type": "Feature", "properties": { "name": "San Giovanni del Dosso", "population": "864", "province": "MN", "state": "IT" }, "geometry": { "type": "Point", "coordinates": [ 11.08114, 44.96627 ] } },
{ "type": "Feature", "properties": { "name": "San Giovanni al Natisone", "population": "4067", "province": "UD", "state": "IT" }, "geometry": { "type": "Point", "coordinates": [ 13.40182, 45.97079 ] } },
{ "type": "Feature", "properties": { "name": "San Giovanni", "population": "1356", "province": "PN", "state": "IT" }, "geometry": { "type": "Point", "coordinates": [ 12.51556, 46.02104 ] } },
{ "type": "Feature", "properties": { "name": "San Giorgio in Salici", "population": "1396", "province": "VR", "state": "IT" }, "geometry": { "type": "Point", "coordinates": [ 10.78906, 45.42676 ] } },
{ "type": "Feature", "properties": { "name": "San Giorgio di Nogaro", "population": "6219", "province": "UD", "state": "IT" }, "geometry": { "type": "Point", "coordinates": [ 13.21088, 45.82745 ] } },
{ "type": "Feature", "properties": { "name": "San Giacomo delle Segnate", "population": "1264", "province": "MN", "state": "IT" }, "geometry": { "type": "Point", "coordinates": [ 11.03434, 44.97418 ] } },
{ "type": "Feature", "properties": { "name": "San Floriano del Collio", "population": "297", "province": "GO", "state": "IT" }, "geometry": { "type": "Point", "coordinates": [ 13.58875, 45.98088 ] } },
{ "type": "Feature", "properties": { "name": "Nove-San Floriano", "population": "557", "province": "TV", "state": "IT" }, "geometry": { "type": "Point", "coordinates": [ 12.30788, 46.04075 ] } },
{ "type": "Feature", "properties": { "name": "San Floriano", "population": "2000", "province": "VR", "state": "IT" }, "geometry": { "type": "Point", "coordinates": [ 10.90817, 45.51796 ] } },
{ "type": "Feature", "properties": { "name": "San Fior di Sotto", "population": "853", "province": "TV", "state": "IT" }, "geometry": { "type": "Point", "coordinates": [ 12.37505, 45.90339 ] } },
{ "type": "Feature", "properties": { "name": "San Fior di Sopra", "population": "2898", "province": "TV", "state": "IT" }, "geometry": { "type": "Point", "coordinates": [ 12.36137, 45.92219 ] } },
{ "type": "Feature", "properties": { "name": "San Daniele del Friuli", "population": "6700", "province": "UD", "state": "IT" }, "geometry": { "type": "Point", "coordinates": [ 13.00726, 46.15714 ] } },
{ "type": "Feature", "properties": { "name": "San Briccio", "population": "618", "province": "VR", "state": "IT" }, "geometry": { "type": "Point", "coordinates": [ 11.1192, 45.45476 ] } },
{ "type": "Feature", "properties": { "name": "San Bonifacio", "population": "17347", "province": "VR", "state": "IT" }, "geometry": { "type": "Point", "coordinates": [ 11.27352, 45.39595 ] } },
{ "type": "Feature", "properties": { "name": "San Biagio di Callalta", "population": "2584", "province": "TV", "state": "IT" }, "geometry": { "type": "Point", "coordinates": [ 12.37722, 45.68361 ] } },
{ "type": "Feature", "properties": { "name": "San Benedetto Po", "population": "5312", "province": "MN", "state": "IT" }, "geometry": { "type": "Point", "coordinates": [ 10.93367, 45.04612 ] } },
{ "type": "Feature", "properties": { "name": "Sammardenchia", "population": "811", "province": "UD", "state": "IT" }, "geometry": { "type": "Point", "coordinates": [ 13.23, 45.98528 ] } },
{ "type": "Feature", "properties": { "name": "Salzano", "population": "7450", "province": "VE", "state": "IT" }, "geometry": { "type": "Point", "coordinates": [ 12.10151, 45.52221 ] } },
{ "type": "Feature", "properties": { "name": "Salvatronda", "population": "2023", "province": "TV", "state": "IT" }, "geometry": { "type": "Point", "coordinates": [ 11.97709, 45.67425 ] } },
{ "type": "Feature", "properties": { "name": "Salizzole", "population": "1653", "province": "VR", "state": "IT" }, "geometry": { "type": "Point", "coordinates": [ 11.0954, 45.24004 ] } },
{ "type": "Feature", "properties": { "name": "Salionze", "population": "1288", "province": "VR", "state": "IT" }, "geometry": { "type": "Point", "coordinates": [ 10.72259, 45.40493 ] } },
{ "type": "Feature", "properties": { "name": "Salgareda", "population": "5574", "province": "TV", "state": "IT" }, "geometry": { "type": "Point", "coordinates": [ 12.48833, 45.705 ] } },
{ "type": "Feature", "properties": { "name": "Saletto-San Bartolomeo", "population": "1311", "province": "TV", "state": "IT" }, "geometry": { "type": "Point", "coordinates": [ 12.39556, 45.72639 ] } },
{ "type": "Feature", "properties": { "name": "Sala", "population": "701", "province": "TV", "state": "IT" }, "geometry": { "type": "Point", "coordinates": [ 12.095, 45.70333 ] } },
{ "type": "Feature", "properties": { "name": "Sagrado", "population": "1300", "province": "GO", "state": "IT" }, "geometry": { "type": "Point", "coordinates": [ 13.48418, 45.87393 ] } },
{ "type": "Feature", "properties": { "name": "Sacile", "population": "16626", "province": "PN", "state": "IT" }, "geometry": { "type": "Point", "coordinates": [ 12.50274, 45.95412 ] } },
{ "type": "Feature", "properties": { "name": "Roverbella", "population": "3864", "province": "MN", "state": "IT" }, "geometry": { "type": "Point", "coordinates": [ 10.77047, 45.26659 ] } },
{ "type": "Feature", "properties": { "name": "Rossano Veneto", "population": "7572", "province": "VI", "state": "IT" }, "geometry": { "type": "Point", "coordinates": [ 11.80369, 45.70308 ] } },
{ "type": "Feature", "properties": { "name": "Rosà", "population": "12548", "province": "VI", "state": "IT" }, "geometry": { "type": "Point", "coordinates": [ 11.76141, 45.70198 ] } },
{ "type": "Feature", "properties": { "name": "Roncoferraro", "population": "2854", "province": "MN", "state": "IT" }, "geometry": { "type": "Point", "coordinates": [ 10.9421, 45.13812 ] } },
{ "type": "Feature", "properties": { "name": "Ronco All'Adige", "population": "3360", "province": "VR", "state": "IT" }, "geometry": { "type": "Point", "coordinates": [ 11.23658, 45.33647 ] } },
{ "type": "Feature", "properties": { "name": "Ronchis", "population": "1643", "province": "UD", "state": "IT" }, "geometry": { "type": "Point", "coordinates": [ 12.99545, 45.80792 ] } },
{ "type": "Feature", "properties": { "name": "Ronchi dei Legionari", "population": "11902", "province": "GO", "state": "IT" }, "geometry": { "type": "Point", "coordinates": [ 13.50417, 45.82735 ] } },
{ "type": "Feature", "properties": { "name": "Villapiana-Ronchena", "population": "992", "province": "BL", "state": "IT" }, "geometry": { "type": "Point", "coordinates": [ 12.0, 46.03333 ] } },
{ "type": "Feature", "properties": { "name": "Roncade", "population": "6585", "province": "TV", "state": "IT" }, "geometry": { "type": "Point", "coordinates": [ 12.37643, 45.62165 ] } },
{ "type": "Feature", "properties": { "name": "Roncà", "population": "1294", "province": "VR", "state": "IT" }, "geometry": { "type": "Point", "coordinates": [ 11.29323, 45.47987 ] } },
{ "type": "Feature", "properties": { "name": "Romans d'Isonzo", "population": "3109", "province": "GO", "state": "IT" }, "geometry": { "type": "Point", "coordinates": [ 13.44187, 45.88816 ] } },
{ "type": "Feature", "properties": { "name": "Romans", "population": "524", "province": "UD", "state": "IT" }, "geometry": { "type": "Point", "coordinates": [ 13.01908, 45.89943 ] } },
{ "type": "Feature", "properties": { "name": "Rolo", "population": "3650", "province": "RE", "state": "IT" }, "geometry": { "type": "Point", "coordinates": [ 10.85961, 44.88482 ] } },
{ "type": "Feature", "properties": { "name": "Rodigo", "population": "1555", "province": "MN", "state": "IT" }, "geometry": { "type": "Point", "coordinates": [ 10.62527, 45.19912 ] } },
{ "type": "Feature", "properties": { "name": "Rodeano", "population": "1241", "province": "UD", "state": "IT" }, "geometry": { "type": "Point", "coordinates": [ 13.0111, 46.11085 ] } },
{ "type": "Feature", "properties": { "name": "Rivignano", "population": "3541", "province": "UD", "state": "IT" }, "geometry": { "type": "Point", "coordinates": [ 13.0419, 45.87575 ] } },
{ "type": "Feature", "properties": { "name": "Rive d'Arcano", "population": "638", "province": "UD", "state": "IT" }, "geometry": { "type": "Point", "coordinates": [ 13.03222, 46.12722 ] } },
{ "type": "Feature", "properties": { "name": "Rivarotta", "population": "528", "province": "UD", "state": "IT" }, "geometry": { "type": "Point", "coordinates": [ 13.08103, 45.82137 ] } },
{ "type": "Feature", "properties": { "name": "Risano", "population": "671", "province": "UD", "state": "IT" }, "geometry": { "type": "Point", "coordinates": [ 13.25492, 45.97441 ] } },
{ "type": "Feature", "properties": { "name": "Riese Pio X", "population": "3389", "province": "TV", "state": "IT" }, "geometry": { "type": "Point", "coordinates": [ 11.91801, 45.72858 ] } },
{ "type": "Feature", "properties": { "name": "Revine", "population": "1164", "province": "TV", "state": "IT" }, "geometry": { "type": "Point", "coordinates": [ 12.25561, 45.99935 ] } },
{ "type": "Feature", "properties": { "name": "Revere", "population": "2142", "province": "MN", "state": "IT" }, "geometry": { "type": "Point", "coordinates": [ 11.13059, 45.05207 ] } },
{ "type": "Feature", "properties": { "name": "Resana", "population": "3031", "province": "TV", "state": "IT" }, "geometry": { "type": "Point", "coordinates": [ 11.95472, 45.63535 ] } },
{ "type": "Feature", "properties": { "name": "Remanzacco", "population": "3399", "province": "UD", "state": "IT" }, "geometry": { "type": "Point", "coordinates": [ 13.32358, 46.08535 ] } },
{ "type": "Feature", "properties": { "name": "Reggiolo", "population": "6753", "province": "RE", "state": "IT" }, "geometry": { "type": "Point", "coordinates": [ 10.81016, 44.91824 ] } },
{ "type": "Feature", "properties": { "name": "Refrontolo", "population": "648", "province": "TV", "state": "IT" }, "geometry": { "type": "Point", "coordinates": [ 12.20865, 45.92305 ] } },
{ "type": "Feature", "properties": { "name": "Redipuglia", "population": "736", "province": "GO", "state": "IT" }, "geometry": { "type": "Point", "coordinates": [ 13.48649, 45.84584 ] } },
{ "type": "Feature", "properties": { "name": "Ramon", "population": "1013", "province": "TV", "state": "IT" }, "geometry": { "type": "Point", "coordinates": [ 11.86828, 45.71386 ] } },
{ "type": "Feature", "properties": { "name": "Raldon", "population": "3830", "province": "VR", "state": "IT" }, "geometry": { "type": "Point", "coordinates": [ 11.03786, 45.34921 ] } },
{ "type": "Feature", "properties": { "name": "Quistello", "population": "3720", "province": "MN", "state": "IT" }, "geometry": { "type": "Point", "coordinates": [ 10.98377, 45.00794 ] } },
{ "type": "Feature", "properties": { "name": "Quinto di Treviso", "population": "6796", "province": "TV", "state": "IT" }, "geometry": { "type": "Point", "coordinates": [ 12.16509, 45.64351 ] } },
{ "type": "Feature", "properties": { "name": "Quingentole", "population": "927", "province": "MN", "state": "IT" }, "geometry": { "type": "Point", "coordinates": [ 11.04575, 45.03801 ] } },
{ "type": "Feature", "properties": { "name": "Quero", "population": "1807", "province": "BL", "state": "IT" }, "geometry": { "type": "Point", "coordinates": [ 11.93151, 45.92094 ] } },
{ "type": "Feature", "properties": { "name": "Quarto d'Altino", "population": "5880", "province": "VE", "state": "IT" }, "geometry": { "type": "Point", "coordinates": [ 12.37333, 45.57944 ] } },
{ "type": "Feature", "properties": { "name": "Qualso", "population": "652", "province": "UD", "state": "IT" }, "geometry": { "type": "Point", "coordinates": [ 13.24298, 46.17651 ] } },
{ "type": "Feature", "properties": { "name": "Puos d'Alpago", "population": "1547", "province": "BL", "state": "IT" }, "geometry": { "type": "Point", "coordinates": [ 12.36176, 46.14154 ] } },
{ "type": "Feature", "properties": { "name": "Pulfero", "population": "112", "province": "UD", "state": "IT" }, "geometry": { "type": "Point", "coordinates": [ 13.48363, 46.17376 ] } },
{ "type": "Feature", "properties": { "name": "Pressana", "population": "1017", "province": "VR", "state": "IT" }, "geometry": { "type": "Point", "coordinates": [ 11.40724, 45.28258 ] } },
{ "type": "Feature", "properties": { "name": "Premariacco", "population": "1743", "province": "UD", "state": "IT" }, "geometry": { "type": "Point", "coordinates": [ 13.39461, 46.06145 ] } },
{ "type": "Feature", "properties": { "name": "Preganziol", "population": "6674", "province": "TV", "state": "IT" }, "geometry": { "type": "Point", "coordinates": [ 12.23722, 45.60139 ] } },
{ "type": "Feature", "properties": { "name": "Precenicco", "population": "1190", "province": "UD", "state": "IT" }, "geometry": { "type": "Point", "coordinates": [ 13.07554, 45.79694 ] } },
{ "type": "Feature", "properties": { "name": "Prata di Pordenone", "population": "4608", "province": "PN", "state": "IT" }, "geometry": { "type": "Point", "coordinates": [ 12.58843, 45.89441 ] } },
{ "type": "Feature", "properties": { "name": "Pozzuolo del Friuli", "population": "1684", "province": "UD", "state": "IT" }, "geometry": { "type": "Point", "coordinates": [ 13.19724, 45.98517 ] } },
{ "type": "Feature", "properties": { "name": "Pozzolengo", "population": "2477", "province": "BS", "state": "IT" }, "geometry": { "type": "Point", "coordinates": [ 10.6304, 45.40515 ] } },
{ "type": "Feature", "properties": { "name": "Povoletto", "population": "1969", "province": "UD", "state": "IT" }, "geometry": { "type": "Point", "coordinates": [ 13.29171, 46.11568 ] } },
{ "type": "Feature", "properties": { "name": "Povegliano Veronese", "population": "6113", "province": "VR", "state": "IT" }, "geometry": { "type": "Point", "coordinates": [ 10.88056, 45.3473 ] } },
{ "type": "Feature", "properties": { "name": "Postioma", "population": "2538", "province": "TV", "state": "IT" }, "geometry": { "type": "Point", "coordinates": [ 12.15218, 45.71753 ] } },
{ "type": "Feature", "properties": { "name": "Possagno", "population": "2110", "province": "TV", "state": "IT" }, "geometry": { "type": "Point", "coordinates": [ 11.88467, 45.84795 ] } },
{ "type": "Feature", "properties": { "name": "Portobuffolè", "population": "629", "province": "TV", "state": "IT" }, "geometry": { "type": "Point", "coordinates": [ 12.53761, 45.85665 ] } },
{ "type": "Feature", "properties": { "name": "Porpetto", "population": "1550", "province": "UD", "state": "IT" }, "geometry": { "type": "Point", "coordinates": [ 13.21703, 45.857 ] } },
{ "type": "Feature", "properties": { "name": "Porcellengo", "population": "1307", "province": "TV", "state": "IT" }, "geometry": { "type": "Point", "coordinates": [ 12.14225, 45.70613 ] } },
{ "type": "Feature", "properties": { "name": "Ponte nelle Alpi", "population": "7913", "province": "BL", "state": "IT" }, "geometry": { "type": "Point", "coordinates": [ 12.28333, 46.18083 ] } },
{ "type": "Feature", "properties": { "name": "Ponte di Piave", "population": "3529", "province": "TV", "state": "IT" }, "geometry": { "type": "Point", "coordinates": [ 12.46186, 45.71904 ] } },
{ "type": "Feature", "properties": { "name": "Ponte nelle Alpi-Polpet", "population": "5089", "province": "BL", "state": "IT" }, "geometry": { "type": "Point", "coordinates": [ 12.27833, 46.18833 ] } },
{ "type": "Feature", "properties": { "name": "Polesine", "population": "715", "province": "MN", "state": "IT" }, "geometry": { "type": "Point", "coordinates": [ 10.80428, 44.98581 ] } },
{ "type": "Feature", "properties": { "name": "Polcenigo", "population": "1474", "province": "PN", "state": "IT" }, "geometry": { "type": "Point", "coordinates": [ 12.50321, 46.03822 ] } },
{ "type": "Feature", "properties": { "name": "Poiano", "population": "1833", "province": "VR", "state": "IT" }, "geometry": { "type": "Point", "coordinates": [ 11.01875, 45.47029 ] } },
{ "type": "Feature", "properties": { "name": "Poggio Rusco", "population": "5769", "province": "MN", "state": "IT" }, "geometry": { "type": "Point", "coordinates": [ 11.10419, 44.96693 ] } },
{ "type": "Feature", "properties": { "name": "Pocenia", "population": "1451", "province": "UD", "state": "IT" }, "geometry": { "type": "Point", "coordinates": [ 13.10145, 45.8357 ] } },
{ "type": "Feature", "properties": { "name": "Plasencis", "population": "586", "province": "UD", "state": "IT" }, "geometry": { "type": "Point", "coordinates": [ 13.07677, 46.06825 ] } },
{ "type": "Feature", "properties": { "name": "Piubega", "population": "835", "province": "MN", "state": "IT" }, "geometry": { "type": "Point", "coordinates": [ 10.53195, 45.22677 ] } },
{ "type": "Feature", "properties": { "name": "Piombino Dese", "population": "4879", "province": "PD", "state": "IT" }, "geometry": { "type": "Point", "coordinates": [ 11.99416, 45.60964 ] } },
{ "type": "Feature", "properties": { "name": "Pinzano al Tagliamento", "population": "430", "province": "PN", "state": "IT" }, "geometry": { "type": "Point", "coordinates": [ 12.94433, 46.18216 ] } },
{ "type": "Feature", "properties": { "name": "Pieve di Soligo", "population": "9516", "province": "TV", "state": "IT" }, "geometry": { "type": "Point", "coordinates": [ 12.17128, 45.89836 ] } },
{ "type": "Feature", "properties": { "name": "Pieve d'Alpago", "population": "338", "province": "BL", "state": "IT" }, "geometry": { "type": "Point", "coordinates": [ 12.35344, 46.16658 ] } },
{ "type": "Feature", "properties": { "name": "Pietole", "population": "721", "province": "MN", "state": "IT" }, "geometry": { "type": "Point", "coordinates": [ 10.81827, 45.11406 ] } },
{ "type": "Feature", "properties": { "name": "Pieris", "population": "3140", "province": "GO", "state": "IT" }, "geometry": { "type": "Point", "coordinates": [ 13.44917, 45.81243 ] } },
{ "type": "Feature", "properties": { "name": "Piazza", "population": "211", "province": "VR", "state": "IT" }, "geometry": { "type": "Point", "coordinates": [ 11.14244, 45.21585 ] } },
{ "type": "Feature", "properties": { "name": "Pezzan", "population": "903", "province": "TV", "state": "IT" }, "geometry": { "type": "Point", "coordinates": [ 12.29182, 45.6977 ] } },
{ "type": "Feature", "properties": { "name": "Peschiera del Garda", "population": "7733", "province": "VR", "state": "IT" }, "geometry": { "type": "Point", "coordinates": [ 10.68614, 45.43912 ] } },
{ "type": "Feature", "properties": { "name": "Pescantina", "population": "11743", "province": "VR", "state": "IT" }, "geometry": { "type": "Point", "coordinates": [ 10.86796, 45.48548 ] } },
{ "type": "Feature", "properties": { "name": "Percoto", "population": "1542", "province": "UD", "state": "IT" }, "geometry": { "type": "Point", "coordinates": [ 13.32304, 45.97471 ] } },
{ "type": "Feature", "properties": { "name": "Pellegrina", "population": "882", "province": "VR", "state": "IT" }, "geometry": { "type": "Point", "coordinates": [ 11.01964, 45.22852 ] } },
{ "type": "Feature", "properties": { "name": "Pegognaga", "population": "4676", "province": "MN", "state": "IT" }, "geometry": { "type": "Point", "coordinates": [ 10.85967, 44.99456 ] } },
{ "type": "Feature", "properties": { "name": "Pederobba", "population": "1927", "province": "TV", "state": "IT" }, "geometry": { "type": "Point", "coordinates": [ 11.94977, 45.87567 ] } },
{ "type": "Feature", "properties": { "name": "Pedavena", "population": "3221", "province": "BL", "state": "IT" }, "geometry": { "type": "Point", "coordinates": [ 11.8831, 46.03951 ] } },
{ "type": "Feature", "properties": { "name": "Pastrengo", "population": "1954", "province": "VR", "state": "IT" }, "geometry": { "type": "Point", "coordinates": [ 10.79897, 45.49588 ] } },
{ "type": "Feature", "properties": { "name": "Pasian di Prato", "population": "5447", "province": "UD", "state": "IT" }, "geometry": { "type": "Point", "coordinates": [ 13.1878, 46.04667 ] } },
{ "type": "Feature", "properties": { "name": "Parona", "population": "3110", "province": "VR", "state": "IT" }, "geometry": { "type": "Point", "coordinates": [ 10.94414, 45.47882 ] } },
{ "type": "Feature", "properties": { "name": "Pantianicco", "population": "545", "province": "UD", "state": "IT" }, "geometry": { "type": "Point", "coordinates": [ 13.03555, 46.02346 ] } },
{ "type": "Feature", "properties": { "name": "Palù", "population": "912", "province": "VR", "state": "IT" }, "geometry": { "type": "Point", "coordinates": [ 11.15635, 45.32473 ] } },
{ "type": "Feature", "properties": { "name": "Palmanova", "population": "2515", "province": "UD", "state": "IT" }, "geometry": { "type": "Point", "coordinates": [ 13.30998, 45.9054 ] } },
{ "type": "Feature", "properties": { "name": "Palidano", "population": "1032", "province": "MN", "state": "IT" }, "geometry": { "type": "Point", "coordinates": [ 10.77943, 44.97203 ] } },
{ "type": "Feature", "properties": { "name": "Palazzolo dello Stella", "population": "2544", "province": "UD", "state": "IT" }, "geometry": { "type": "Point", "coordinates": [ 13.08776, 45.79823 ] } },
{ "type": "Feature", "properties": { "name": "Paese", "population": "9395", "province": "TV", "state": "IT" }, "geometry": { "type": "Point", "coordinates": [ 12.16389, 45.67417 ] } },
{ "type": "Feature", "properties": { "name": "Ostiglia", "population": "5648", "province": "MN", "state": "IT" }, "geometry": { "type": "Point", "coordinates": [ 11.13499, 45.06978 ] } },
{ "type": "Feature", "properties": { "name": "Ospedaletto", "population": "2261", "province": "TV", "state": "IT" }, "geometry": { "type": "Point", "coordinates": [ 12.07884, 45.66194 ] } },
{ "type": "Feature", "properties": { "name": "Osoppo", "population": "2493", "province": "UD", "state": "IT" }, "geometry": { "type": "Point", "coordinates": [ 13.08453, 46.25536 ] } },
{ "type": "Feature", "properties": { "name": "Osigo", "population": "569", "province": "TV", "state": "IT" }, "geometry": { "type": "Point", "coordinates": [ 12.35006, 46.01192 ] } },
{ "type": "Feature", "properties": { "name": "Orzano", "population": "585", "province": "UD", "state": "IT" }, "geometry": { "type": "Point", "coordinates": [ 13.34512, 46.06652 ] } },
{ "type": "Feature", "properties": { "name": "Orgiano", "population": "1914", "province": "VI", "state": "IT" }, "geometry": { "type": "Point", "coordinates": [ 11.45953, 45.33366 ] } },
{ "type": "Feature", "properties": { "name": "Oppeano", "population": "2653", "province": "VR", "state": "IT" }, "geometry": { "type": "Point", "coordinates": [ 11.18005, 45.30331 ] } },
{ "type": "Feature", "properties": { "name": "Oderzo", "population": "15764", "province": "TV", "state": "IT" }, "geometry": { "type": "Point", "coordinates": [ 12.49442, 45.78114 ] } },
{ "type": "Feature", "properties": { "name": "Novi di Modena", "population": "5679", "province": "MO", "state": "IT" }, "geometry": { "type": "Point", "coordinates": [ 10.90027, 44.88974 ] } },
{ "type": "Feature", "properties": { "name": "Nogarole Rocca", "population": "638", "province": "VR", "state": "IT" }, "geometry": { "type": "Point", "coordinates": [ 10.88342, 45.29027 ] } },
{ "type": "Feature", "properties": { "name": "Nogaredo di Prato", "population": "952", "province": "UD", "state": "IT" }, "geometry": { "type": "Point", "coordinates": [ 13.13436, 46.07563 ] } },
{ "type": "Feature", "properties": { "name": "Nogara", "population": "7003", "province": "VR", "state": "IT" }, "geometry": { "type": "Point", "coordinates": [ 11.06008, 45.18109 ] } },
{ "type": "Feature", "properties": { "name": "Noale", "population": "10500", "province": "VE", "state": "IT" }, "geometry": { "type": "Point", "coordinates": [ 12.06445, 45.54596 ] } },
{ "type": "Feature", "properties": { "name": "Nimis", "population": "2213", "province": "UD", "state": "IT" }, "geometry": { "type": "Point", "coordinates": [ 13.26777, 46.20659 ] } },
{ "type": "Feature", "properties": { "name": "Nespoledo-Villacaccia", "population": "858", "province": "UD", "state": "IT" }, "geometry": { "type": "Point", "coordinates": [ 13.09083, 45.98306 ] } },
{ "type": "Feature", "properties": { "name": "Nervesa della Battaglia", "population": "4349", "province": "TV", "state": "IT" }, "geometry": { "type": "Point", "coordinates": [ 12.19837, 45.81232 ] } },
{ "type": "Feature", "properties": { "name": "Negrisia", "population": "875", "province": "TV", "state": "IT" }, "geometry": { "type": "Point", "coordinates": [ 12.43588, 45.73353 ] } },
{ "type": "Feature", "properties": { "name": "Negrar", "population": "6464", "province": "VR", "state": "IT" }, "geometry": { "type": "Point", "coordinates": [ 10.93899, 45.52918 ] } },
{ "type": "Feature", "properties": { "name": "Muzzana del Turgnano", "population": "2382", "province": "UD", "state": "IT" }, "geometry": { "type": "Point", "coordinates": [ 13.12751, 45.81799 ] } },
{ "type": "Feature", "properties": { "name": "San Pietro Mussolino", "population": "1014", "province": "VI", "state": "IT" }, "geometry": { "type": "Point", "coordinates": [ 11.2593, 45.58359 ] } },
{ "type": "Feature", "properties": { "name": "Musano", "population": "1768", "province": "TV", "state": "IT" }, "geometry": { "type": "Point", "coordinates": [ 12.11785, 45.72646 ] } },
{ "type": "Feature", "properties": { "name": "Mozzecane", "population": "4394", "province": "VR", "state": "IT" }, "geometry": { "type": "Point", "coordinates": [ 10.81554, 45.30763 ] } },
{ "type": "Feature", "properties": { "name": "Mossa", "population": "1659", "province": "GO", "state": "IT" }, "geometry": { "type": "Point", "coordinates": [ 13.54933, 45.93674 ] } },
{ "type": "Feature", "properties": { "name": "Mosnigo", "population": "1333", "province": "TV", "state": "IT" }, "geometry": { "type": "Point", "coordinates": [ 12.07852, 45.86303 ] } },
{ "type": "Feature", "properties": { "name": "Moruzzo", "population": "864", "province": "UD", "state": "IT" }, "geometry": { "type": "Point", "coordinates": [ 13.124, 46.11967 ] } },
{ "type": "Feature", "properties": { "name": "Mortegliano", "population": "3487", "province": "UD", "state": "IT" }, "geometry": { "type": "Point", "coordinates": [ 13.17255, 45.94553 ] } },
{ "type": "Feature", "properties": { "name": "Moriago della Battaglia", "population": "1295", "province": "TV", "state": "IT" }, "geometry": { "type": "Point", "coordinates": [ 12.10077, 45.86589 ] } },
{ "type": "Feature", "properties": { "name": "Monzambano", "population": "2986", "province": "MN", "state": "IT" }, "geometry": { "type": "Point", "coordinates": [ 10.69331, 45.38534 ] } },
{ "type": "Feature", "properties": { "name": "Montorso Vicentino", "population": "2006", "province": "VI", "state": "IT" }, "geometry": { "type": "Point", "coordinates": [ 11.36019, 45.49089 ] } },
{ "type": "Feature", "properties": { "name": "Montorio", "population": "5330", "province": "VR", "state": "IT" }, "geometry": { "type": "Point", "coordinates": [ 11.06589, 45.45826 ] } },
{ "type": "Feature", "properties": { "name": "Monteforte d'Alpone", "population": "5235", "province": "VR", "state": "IT" }, "geometry": { "type": "Point", "coordinates": [ 11.28446, 45.42013 ] } },
{ "type": "Feature", "properties": { "name": "Montecchio Maggiore-Alte Ceccato", "population": "20815", "province": "VI", "state": "IT" }, "geometry": { "type": "Point", "coordinates": [ 11.412, 45.50369 ] } },
{ "type": "Feature", "properties": { "name": "Montecchia di Crosara", "population": "2260", "province": "VR", "state": "IT" }, "geometry": { "type": "Point", "coordinates": [ 11.25438, 45.4819 ] } },
{ "type": "Feature", "properties": { "name": "Montebelluna", "population": "26670", "province": "TV", "state": "IT" }, "geometry": { "type": "Point", "coordinates": [ 12.04904, 45.77504 ] } },
{ "type": "Feature", "properties": { "name": "Montebello Vicentino", "population": "5097", "province": "VI", "state": "IT" }, "geometry": { "type": "Point", "coordinates": [ 11.38272, 45.45919 ] } },
{ "type": "Feature", "properties": { "name": "Montaner", "population": "976", "province": "TV", "state": "IT" }, "geometry": { "type": "Point", "coordinates": [ 12.37866, 45.99822 ] } },
{ "type": "Feature", "properties": { "name": "Montanara", "population": "1853", "province": "MN", "state": "IT" }, "geometry": { "type": "Point", "coordinates": [ 10.71879, 45.13531 ] } },
{ "type": "Feature", "properties": { "name": "Montagnana", "population": "8000", "province": "PD", "state": "IT" }, "geometry": { "type": "Point", "coordinates": [ 11.46483, 45.23229 ] } },
{ "type": "Feature", "properties": { "name": "Monfalcone", "population": "26706", "province": "GO", "state": "IT" }, "geometry": { "type": "Point", "coordinates": [ 13.53292, 45.80463 ] } },
{ "type": "Feature", "properties": { "name": "Monastier di Treviso", "population": "3554", "province": "TV", "state": "IT" }, "geometry": { "type": "Point", "coordinates": [ 12.4175, 45.65778 ] } },
{ "type": "Feature", "properties": { "name": "Moimacco", "population": "1292", "province": "UD", "state": "IT" }, "geometry": { "type": "Point", "coordinates": [ 13.3727, 46.09145 ] } },
{ "type": "Feature", "properties": { "name": "Mogliano Veneto", "population": "21991", "province": "TV", "state": "IT" }, "geometry": { "type": "Point", "coordinates": [ 12.24294, 45.55594 ] } },
{ "type": "Feature", "properties": { "name": "Moglia", "population": "752", "province": "MN", "state": "IT" }, "geometry": { "type": "Point", "coordinates": [ 11.26682, 45.01354 ] } },
{ "type": "Feature", "properties": { "name": "Moglia", "population": "3918", "province": "MN", "state": "IT" }, "geometry": { "type": "Point", "coordinates": [ 10.91463, 44.93561 ] } },
{ "type": "Feature", "properties": { "name": "Mizzole", "population": "799", "province": "VR", "state": "IT" }, "geometry": { "type": "Point", "coordinates": [ 11.06021, 45.47871 ] } },
{ "type": "Feature", "properties": { "name": "Mirano", "population": "15139", "province": "VE", "state": "IT" }, "geometry": { "type": "Point", "coordinates": [ 12.10775, 45.49458 ] } },
{ "type": "Feature", "properties": { "name": "Minerbe", "population": "4112", "province": "VR", "state": "IT" }, "geometry": { "type": "Point", "coordinates": [ 11.35249, 45.23198 ] } },
{ "type": "Feature", "properties": { "name": "Michellorie", "population": "555", "province": "VR", "state": "IT" }, "geometry": { "type": "Point", "coordinates": [ 11.30844, 45.28636 ] } },
{ "type": "Feature", "properties": { "name": "Miane", "population": "1985", "province": "TV", "state": "IT" }, "geometry": { "type": "Point", "coordinates": [ 12.09246, 45.94341 ] } },
{ "type": "Feature", "properties": { "name": "Merlara", "population": "1842", "province": "PD", "state": "IT" }, "geometry": { "type": "Point", "coordinates": [ 11.44504, 45.167 ] } },
{ "type": "Feature", "properties": { "name": "Mereto di Tomba", "population": "642", "province": "UD", "state": "IT" }, "geometry": { "type": "Point", "coordinates": [ 13.04432, 46.05128 ] } },
{ "type": "Feature", "properties": { "name": "Meolo", "population": "3978", "province": "VE", "state": "IT" }, "geometry": { "type": "Point", "coordinates": [ 12.45236, 45.6197 ] } },
{ "type": "Feature", "properties": { "name": "Mels", "population": "545", "province": "UD", "state": "IT" }, "geometry": { "type": "Point", "coordinates": [ 13.10948, 46.17645 ] } },
{ "type": "Feature", "properties": { "name": "Melara", "population": "1294", "province": "RO", "state": "IT" }, "geometry": { "type": "Point", "coordinates": [ 11.20117, 45.06421 ] } },
{ "type": "Feature", "properties": { "name": "Mel", "population": "1744", "province": "BL", "state": "IT" }, "geometry": { "type": "Point", "coordinates": [ 12.09, 46.06379 ] } },
{ "type": "Feature", "properties": { "name": "Medole", "population": "3522", "province": "MN", "state": "IT" }, "geometry": { "type": "Point", "coordinates": [ 10.51357, 45.32588 ] } },
{ "type": "Feature", "properties": { "name": "Medeuzza", "population": "567", "province": "UD", "state": "IT" }, "geometry": { "type": "Point", "coordinates": [ 13.39628, 45.94118 ] } },
{ "type": "Feature", "properties": { "name": "Maser", "population": "1498", "province": "TV", "state": "IT" }, "geometry": { "type": "Point", "coordinates": [ 11.975, 45.8074 ] } },
{ "type": "Feature", "properties": { "name": "Mas", "population": "857", "province": "BL", "state": "IT" }, "geometry": { "type": "Point", "coordinates": [ 12.12963, 46.15193 ] } },
{ "type": "Feature", "properties": { "name": "Martignacco", "population": "5050", "province": "UD", "state": "IT" }, "geometry": { "type": "Point", "coordinates": [ 13.13973, 46.09313 ] } },
{ "type": "Feature", "properties": { "name": "Martellago", "population": "7224", "province": "VE", "state": "IT" }, "geometry": { "type": "Point", "coordinates": [ 12.16363, 45.54383 ] } },
{ "type": "Feature", "properties": { "name": "Marmirolo", "population": "5276", "province": "MN", "state": "IT" }, "geometry": { "type": "Point", "coordinates": [ 10.75609, 45.21928 ] } },
{ "type": "Feature", "properties": { "name": "Mariano del Friuli", "population": "1264", "province": "GO", "state": "IT" }, "geometry": { "type": "Point", "coordinates": [ 13.45947, 45.91509 ] } },
{ "type": "Feature", "properties": { "name": "Marcon-Gaggio-Colmello", "population": "12565", "province": "VE", "state": "IT" }, "geometry": { "type": "Point", "coordinates": [ 12.29889, 45.56444 ] } },
{ "type": "Feature", "properties": { "name": "Marcaria", "population": "863", "province": "MN", "state": "IT" }, "geometry": { "type": "Point", "coordinates": [ 10.53278, 45.12225 ] } },
{ "type": "Feature", "properties": { "name": "Marano Lagunare", "population": "1934", "province": "UD", "state": "IT" }, "geometry": { "type": "Point", "coordinates": [ 13.16733, 45.76353 ] } },
{ "type": "Feature", "properties": { "name": "Marano di Valpolicella", "population": "293", "province": "VR", "state": "IT" }, "geometry": { "type": "Point", "coordinates": [ 10.91622, 45.55637 ] } },
{ "type": "Feature", "properties": { "name": "Manzano", "population": "5168", "province": "UD", "state": "IT" }, "geometry": { "type": "Point", "coordinates": [ 13.37674, 45.98843 ] } },
{ "type": "Feature", "properties": { "name": "Mantova", "population": "39260", "province": "MN", "state": "IT" }, "geometry": { "type": "Point", "coordinates": [ 10.79784, 45.16031 ] } },
{ "type": "Feature", "properties": { "name": "Mansuè", "population": "2937", "province": "TV", "state": "IT" }, "geometry": { "type": "Point", "coordinates": [ 12.5351, 45.82118 ] } },
{ "type": "Feature", "properties": { "name": "Magnano in Riviera", "population": "1768", "province": "UD", "state": "IT" }, "geometry": { "type": "Point", "coordinates": [ 13.19483, 46.22369 ] } },
{ "type": "Feature", "properties": { "name": "Magnacavallo", "population": "1095", "province": "MN", "state": "IT" }, "geometry": { "type": "Point", "coordinates": [ 11.18326, 45.00646 ] } },
{ "type": "Feature", "properties": { "name": "Maerne", "population": "7168", "province": "VE", "state": "IT" }, "geometry": { "type": "Point", "coordinates": [ 12.15477, 45.52313 ] } },
{ "type": "Feature", "properties": { "name": "Maccacari", "population": "1488", "province": "VR", "state": "IT" }, "geometry": { "type": "Point", "coordinates": [ 11.13499, 45.14276 ] } },
{ "type": "Feature", "properties": { "name": "Luzzara", "population": "4383", "province": "RE", "state": "IT" }, "geometry": { "type": "Point", "coordinates": [ 10.68953, 44.95925 ] } },
{ "type": "Feature", "properties": { "name": "Lusevera", "population": "192", "province": "UD", "state": "IT" }, "geometry": { "type": "Point", "coordinates": [ 13.26922, 46.27529 ] } },
{ "type": "Feature", "properties": { "name": "Stallavena-Lugo", "population": "2936", "province": "VR", "state": "IT" }, "geometry": { "type": "Point", "coordinates": [ 10.99669, 45.56289 ] } },
{ "type": "Feature", "properties": { "name": "Lugagnano", "population": "8383", "province": "VR", "state": "IT" }, "geometry": { "type": "Point", "coordinates": [ 10.88402, 45.43327 ] } },
{ "type": "Feature", "properties": { "name": "Loria Bessica", "population": "4168", "province": "TV", "state": "IT" }, "geometry": { "type": "Point", "coordinates": [ 11.8654, 45.73 ] } },
{ "type": "Feature", "properties": { "name": "Loreggiola", "population": "1306", "province": "PD", "state": "IT" }, "geometry": { "type": "Point", "coordinates": [ 11.91899, 45.60892 ] } },
{ "type": "Feature", "properties": { "name": "Loreggia", "population": "4010", "province": "PD", "state": "IT" }, "geometry": { "type": "Point", "coordinates": [ 11.94769, 45.59733 ] } },
{ "type": "Feature", "properties": { "name": "Lonigo", "population": "12110", "province": "VI", "state": "IT" }, "geometry": { "type": "Point", "coordinates": [ 11.38402, 45.38576 ] } },
{ "type": "Feature", "properties": { "name": "Rivolto-Lonca", "population": "977", "province": "UD", "state": "IT" }, "geometry": { "type": "Point", "coordinates": [ 13.02389, 45.94583 ] } },
{ "type": "Feature", "properties": { "name": "Liedolo", "population": "938", "province": "TV", "state": "IT" }, "geometry": { "type": "Point", "coordinates": [ 11.82034, 45.7923 ] } },
{ "type": "Feature", "properties": { "name": "Libiola", "population": "788", "province": "MN", "state": "IT" }, "geometry": { "type": "Point", "coordinates": [ 11.06066, 45.06251 ] } },
{ "type": "Feature", "properties": { "name": "Libano", "population": "554", "province": "BL", "state": "IT" }, "geometry": { "type": "Point", "coordinates": [ 12.15474, 46.15189 ] } },
{ "type": "Feature", "properties": { "name": "Levada", "population": "1385", "province": "TV", "state": "IT" }, "geometry": { "type": "Point", "coordinates": [ 12.47128, 45.73442 ] } },
{ "type": "Feature", "properties": { "name": "Levada", "population": "863", "province": "PD", "state": "IT" }, "geometry": { "type": "Point", "coordinates": [ 12.05686, 45.62449 ] } },
{ "type": "Feature", "properties": { "name": "Lestizza", "population": "882", "province": "UD", "state": "IT" }, "geometry": { "type": "Point", "coordinates": [ 13.14221, 45.95656 ] } },
{ "type": "Feature", "properties": { "name": "Lentiai", "population": "1448", "province": "BL", "state": "IT" }, "geometry": { "type": "Point", "coordinates": [ 12.02053, 46.04504 ] } },
{ "type": "Feature", "properties": { "name": "Legnago", "population": "21646", "province": "VR", "state": "IT" }, "geometry": { "type": "Point", "coordinates": [ 11.30227, 45.19365 ] } },
{ "type": "Feature", "properties": { "name": "Lazise", "population": "3049", "province": "VR", "state": "IT" }, "geometry": { "type": "Point", "coordinates": [ 10.73923, 45.50499 ] } },
{ "type": "Feature", "properties": { "name": "Lavariano", "population": "922", "province": "UD", "state": "IT" }, "geometry": { "type": "Point", "coordinates": [ 13.22825, 45.95604 ] } },
{ "type": "Feature", "properties": { "name": "Lauzacco", "population": "1122", "province": "UD", "state": "IT" }, "geometry": { "type": "Point", "coordinates": [ 13.28024, 45.98134 ] } },
{ "type": "Feature", "properties": { "name": "Lago", "population": "547", "province": "TV", "state": "IT" }, "geometry": { "type": "Point", "coordinates": [ 12.21477, 45.98611 ] } },
{ "type": "Feature", "properties": { "name": "Cappelletta", "population": "1560", "province": "MN", "state": "IT" }, "geometry": { "type": "Point", "coordinates": [ 10.77847, 45.10514 ] } },
{ "type": "Feature", "properties": { "name": "Istrana", "population": "3665", "province": "TV", "state": "IT" }, "geometry": { "type": "Point", "coordinates": [ 12.10119, 45.67691 ] } },
{ "type": "Feature", "properties": { "name": "Isola della Scala", "population": "8348", "province": "VR", "state": "IT" }, "geometry": { "type": "Point", "coordinates": [ 11.00824, 45.26943 ] } },
{ "type": "Feature", "properties": { "name": "Ipplis", "population": "521", "province": "UD", "state": "IT" }, "geometry": { "type": "Point", "coordinates": [ 13.41013, 46.0432 ] } },
{ "type": "Feature", "properties": { "name": "Illasi", "population": "3029", "province": "VR", "state": "IT" }, "geometry": { "type": "Point", "coordinates": [ 11.18165, 45.46663 ] } },
{ "type": "Feature", "properties": { "name": "Capitello", "population": "750", "province": "VR", "state": "IT" }, "geometry": { "type": "Point", "coordinates": [ 11.14014, 45.20792 ] } },
{ "type": "Feature", "properties": { "name": "Ialmicco", "population": "1194", "province": "UD", "state": "IT" }, "geometry": { "type": "Point", "coordinates": [ 13.34611, 45.91333 ] } },
{ "type": "Feature", "properties": { "name": "Guidizzolo", "population": "4782", "province": "MN", "state": "IT" }, "geometry": { "type": "Point", "coordinates": [ 10.57801, 45.32056 ] } },
{ "type": "Feature", "properties": { "name": "Grezzana", "population": "4784", "province": "VR", "state": "IT" }, "geometry": { "type": "Point", "coordinates": [ 11.01743, 45.52272 ] } },
{ "type": "Feature", "properties": { "name": "Grazie", "population": "637", "province": "MN", "state": "IT" }, "geometry": { "type": "Point", "coordinates": [ 10.6945, 45.1539 ] } },
{ "type": "Feature", "properties": { "name": "Grado", "population": "6767", "province": "GO", "state": "IT" }, "geometry": { "type": "Point", "coordinates": [ 13.40323, 45.67774 ] } },
{ "type": "Feature", "properties": { "name": "Gradisca d'Isonzo", "population": "6431", "province": "GO", "state": "IT" }, "geometry": { "type": "Point", "coordinates": [ 13.50167, 45.8925 ] } },
{ "type": "Feature", "properties": { "name": "Gorizia", "population": "34646", "province": "GO", "state": "IT" }, "geometry": { "type": "Point", "coordinates": [ 13.62167, 45.94088 ] } },
{ "type": "Feature", "properties": { "name": "Gonzaga", "population": "5230", "province": "MN", "state": "IT" }, "geometry": { "type": "Point", "coordinates": [ 10.81913, 44.95193 ] } },
{ "type": "Feature", "properties": { "name": "Gonars", "population": "3938", "province": "UD", "state": "IT" }, "geometry": { "type": "Point", "coordinates": [ 13.24402, 45.8974 ] } },
{ "type": "Feature", "properties": { "name": "Goito", "population": "5538", "province": "MN", "state": "IT" }, "geometry": { "type": "Point", "coordinates": [ 10.66121, 45.25076 ] } },
{ "type": "Feature", "properties": { "name": "Godega", "population": "3506", "province": "TV", "state": "IT" }, "geometry": { "type": "Point", "coordinates": [ 12.39687, 45.92859 ] } },
{ "type": "Feature", "properties": { "name": "Giavera del Montello", "population": "3462", "province": "TV", "state": "IT" }, "geometry": { "type": "Point", "coordinates": [ 12.16667, 45.79374 ] } },
{ "type": "Feature", "properties": { "name": "Gemona", "population": "11141", "province": "UD", "state": "IT" }, "geometry": { "type": "Point", "coordinates": [ 13.12237, 46.27405 ] } },
{ "type": "Feature", "properties": { "name": "Gazzuolo", "population": "997", "province": "MN", "state": "IT" }, "geometry": { "type": "Point", "coordinates": [ 10.57161, 45.06238 ] } },
{ "type": "Feature", "properties": { "name": "Gazzo", "population": "666", "province": "MN", "state": "IT" }, "geometry": { "type": "Point", "coordinates": [ 10.89706, 45.17968 ] } },
{ "type": "Feature", "properties": { "name": "Gazoldo degli Ippoliti", "population": "2738", "province": "MN", "state": "IT" }, "geometry": { "type": "Point", "coordinates": [ 10.57839, 45.19999 ] } },
{ "type": "Feature", "properties": { "name": "Galliera Veneta", "population": "6729", "province": "PD", "state": "IT" }, "geometry": { "type": "Point", "coordinates": [ 11.82217, 45.6675 ] } },
{ "type": "Feature", "properties": { "name": "Galleriano", "population": "598", "province": "UD", "state": "IT" }, "geometry": { "type": "Point", "coordinates": [ 13.12402, 45.96275 ] } },
{ "type": "Feature", "properties": { "name": "Gaiarine", "population": "1892", "province": "TV", "state": "IT" }, "geometry": { "type": "Point", "coordinates": [ 12.48142, 45.88083 ] } },
{ "type": "Feature", "properties": { "name": "Fumane", "population": "2557", "province": "VR", "state": "IT" }, "geometry": { "type": "Point", "coordinates": [ 10.88548, 45.5416 ] } },
{ "type": "Feature", "properties": { "name": "Fregona", "population": "1751", "province": "TV", "state": "IT" }, "geometry": { "type": "Point", "coordinates": [ 12.33864, 46.00795 ] } },
{ "type": "Feature", "properties": { "name": "San Vendemiano-Fossamerlo", "population": "6034", "province": "TV", "state": "IT" }, "geometry": { "type": "Point", "coordinates": [ 12.32992, 45.8918 ] } },
{ "type": "Feature", "properties": { "name": "Fossalunga", "population": "1539", "province": "TV", "state": "IT" }, "geometry": { "type": "Point", "coordinates": [ 12.0532, 45.6916 ] } },
{ "type": "Feature", "properties": { "name": "Fossalta", "population": "619", "province": "PD", "state": "IT" }, "geometry": { "type": "Point", "coordinates": [ 12.00317, 45.57558 ] } },
{ "type": "Feature", "properties": { "name": "Fortogna", "population": "518", "province": "BL", "state": "IT" }, "geometry": { "type": "Point", "coordinates": [ 12.2895, 46.2302 ] } },
{ "type": "Feature", "properties": { "name": "Fornaci", "population": "2856", "province": "TV", "state": "IT" }, "geometry": { "type": "Point", "coordinates": [ 12.43738, 45.6517 ] } },
{ "type": "Feature", "properties": { "name": "Fonzaso", "population": "1947", "province": "BL", "state": "IT" }, "geometry": { "type": "Point", "coordinates": [ 11.79897, 46.0164 ] } },
{ "type": "Feature", "properties": { "name": "Fontanelle", "population": "1766", "province": "TV", "state": "IT" }, "geometry": { "type": "Point", "coordinates": [ 12.46625, 45.83345 ] } },
{ "type": "Feature", "properties": { "name": "Monticelli-Fontana", "population": "1321", "province": "VR", "state": "IT" }, "geometry": { "type": "Point", "coordinates": [ 11.13729, 45.42965 ] } },
{ "type": "Feature", "properties": { "name": "Follina", "population": "1975", "province": "TV", "state": "IT" }, "geometry": { "type": "Point", "coordinates": [ 12.11985, 45.95352 ] } },
{ "type": "Feature", "properties": { "name": "Fogliano", "population": "1715", "province": "GO", "state": "IT" }, "geometry": { "type": "Point", "coordinates": [ 13.48222, 45.86556 ] } },
{ "type": "Feature", "properties": { "name": "Flaibano", "population": "906", "province": "UD", "state": "IT" }, "geometry": { "type": "Point", "coordinates": [ 12.98424, 46.05837 ] } },
{ "type": "Feature", "properties": { "name": "Feltre", "population": "13643", "province": "BL", "state": "IT" }, "geometry": { "type": "Point", "coordinates": [ 11.90031, 46.02085 ] } },
{ "type": "Feature", "properties": { "name": "Feletto Umberto", "population": "0", "province": "UD", "state": "IT" }, "geometry": { "type": "Point", "coordinates": [ 13.22196, 46.10317 ] } },
{ "type": "Feature", "properties": { "name": "Felettis", "population": "507", "province": "UD", "state": "IT" }, "geometry": { "type": "Point", "coordinates": [ 13.26083, 45.91611 ] } },
{ "type": "Feature", "properties": { "name": "Farra di Soligo", "population": "7892", "province": "TV", "state": "IT" }, "geometry": { "type": "Point", "coordinates": [ 12.12444, 45.90528 ] } },
{ "type": "Feature", "properties": { "name": "Farra d'Alpago", "population": "1864", "province": "BL", "state": "IT" }, "geometry": { "type": "Point", "coordinates": [ 12.35876, 46.12079 ] } },
{ "type": "Feature", "properties": { "name": "Fanzolo", "population": "1562", "province": "TV", "state": "IT" }, "geometry": { "type": "Point", "coordinates": [ 11.99023, 45.71218 ] } },
{ "type": "Feature", "properties": { "name": "Falzè di Piave", "population": "2160", "province": "TV", "state": "IT" }, "geometry": { "type": "Point", "coordinates": [ 12.17891, 45.86796 ] } },
{ "type": "Feature", "properties": { "name": "Fagarè", "population": "550", "province": "TV", "state": "IT" }, "geometry": { "type": "Point", "coordinates": [ 12.4277, 45.70693 ] } },
{ "type": "Feature", "properties": { "name": "Fagagna", "population": "4942", "province": "UD", "state": "IT" }, "geometry": { "type": "Point", "coordinates": [ 13.09361, 46.10698 ] } },
{ "type": "Feature", "properties": { "name": "Faedis", "population": "1290", "province": "UD", "state": "IT" }, "geometry": { "type": "Point", "coordinates": [ 13.34463, 46.14931 ] } },
{ "type": "Feature", "properties": { "name": "Faè", "population": "542", "province": "TV", "state": "IT" }, "geometry": { "type": "Point", "coordinates": [ 12.46501, 45.76223 ] } },
{ "type": "Feature", "properties": { "name": "Erbè", "population": "1540", "province": "VR", "state": "IT" }, "geometry": { "type": "Point", "coordinates": [ 10.97135, 45.24231 ] } },
{ "type": "Feature", "properties": { "name": "Duino", "population": "1369", "province": "TS", "state": "IT" }, "geometry": { "type": "Point", "coordinates": [ 13.60436, 45.77342 ] } },
{ "type": "Feature", "properties": { "name": "Dosson", "population": "5783", "province": "TV", "state": "IT" }, "geometry": { "type": "Point", "coordinates": [ 12.25409, 45.63605 ] } },
{ "type": "Feature", "properties": { "name": "Dossobuono", "population": "6087", "province": "VR", "state": "IT" }, "geometry": { "type": "Point", "coordinates": [ 10.91054, 45.39333 ] } },
{ "type": "Feature", "properties": { "name": "Dolegnano", "population": "552", "province": "UD", "state": "IT" }, "geometry": { "type": "Point", "coordinates": [ 13.42742, 45.9835 ] } },
{ "type": "Feature", "properties": { "name": "Doberdò del Lago", "population": "890", "province": "GO", "state": "IT" }, "geometry": { "type": "Point", "coordinates": [ 13.53908, 45.84444 ] } },
{ "type": "Feature", "properties": { "name": "Dignano", "population": "780", "province": "UD", "state": "IT" }, "geometry": { "type": "Point", "coordinates": [ 12.94009, 46.08392 ] } },
{ "type": "Feature", "properties": { "name": "Crocetta del Montello", "population": "5709", "province": "TV", "state": "IT" }, "geometry": { "type": "Point", "coordinates": [ 12.03361, 45.83667 ] } },
{ "type": "Feature", "properties": { "name": "Crespano del Grappa", "population": "4315", "province": "TV", "state": "IT" }, "geometry": { "type": "Point", "coordinates": [ 11.83358, 45.82793 ] } },
{ "type": "Feature", "properties": { "name": "Crespadoro", "population": "475", "province": "VI", "state": "IT" }, "geometry": { "type": "Point", "coordinates": [ 11.22589, 45.62019 ] } },
{ "type": "Feature", "properties": { "name": "Coseano", "population": "771", "province": "UD", "state": "IT" }, "geometry": { "type": "Point", "coordinates": [ 13.02028, 46.09636 ] } },
{ "type": "Feature", "properties": { "name": "Cornuda", "population": "5699", "province": "TV", "state": "IT" }, "geometry": { "type": "Point", "coordinates": [ 12.00598, 45.83152 ] } },
{ "type": "Feature", "properties": { "name": "Corno di Rosazzo", "population": "3005", "province": "UD", "state": "IT" }, "geometry": { "type": "Point", "coordinates": [ 13.44368, 45.9911 ] } },
{ "type": "Feature", "properties": { "name": "Cormons", "population": "5795", "province": "GO", "state": "IT" }, "geometry": { "type": "Point", "coordinates": [ 13.46683, 45.95531 ] } },
{ "type": "Feature", "properties": { "name": "Cordignano", "population": "4974", "province": "TV", "state": "IT" }, "geometry": { "type": "Point", "coordinates": [ 12.41567, 45.94936 ] } },
{ "type": "Feature", "properties": { "name": "Corbiolo", "population": "774", "province": "VR", "state": "IT" }, "geometry": { "type": "Point", "coordinates": [ 11.03051, 45.60024 ] } },
{ "type": "Feature", "properties": { "name": "Corbanese", "population": "1228", "province": "TV", "state": "IT" }, "geometry": { "type": "Point", "coordinates": [ 12.24027, 45.9457 ] } },
{ "type": "Feature", "properties": { "name": "Conscio", "population": "1082", "province": "TV", "state": "IT" }, "geometry": { "type": "Point", "coordinates": [ 12.28219, 45.61701 ] } },
{ "type": "Feature", "properties": { "name": "Conegliano", "population": "30765", "province": "TV", "state": "IT" }, "geometry": { "type": "Point", "coordinates": [ 12.30201, 45.88805 ] } },
{ "type": "Feature", "properties": { "name": "Concordia sulla Secchia", "population": "4832", "province": "MO", "state": "IT" }, "geometry": { "type": "Point", "coordinates": [ 10.98802, 44.91258 ] } },
{ "type": "Feature", "properties": { "name": "Cologna Veneta", "population": "4807", "province": "VR", "state": "IT" }, "geometry": { "type": "Point", "coordinates": [ 11.38032, 45.30777 ] } },
{ "type": "Feature", "properties": { "name": "Colloredo di Prato", "population": "1249", "province": "UD", "state": "IT" }, "geometry": { "type": "Point", "coordinates": [ 13.14394, 46.05124 ] } },
{ "type": "Feature", "properties": { "name": "Colà", "population": "1107", "province": "VR", "state": "IT" }, "geometry": { "type": "Point", "coordinates": [ 10.74257, 45.47428 ] } },
{ "type": "Feature", "properties": { "name": "Codroipo", "population": "12811", "province": "UD", "state": "IT" }, "geometry": { "type": "Point", "coordinates": [ 12.97985, 45.96469 ] } },
{ "type": "Feature", "properties": { "name": "Codognè", "population": "2840", "province": "TV", "state": "IT" }, "geometry": { "type": "Point", "coordinates": [ 12.41284, 45.86047 ] } },
{ "type": "Feature", "properties": { "name": "Codisotto", "population": "1262", "province": "RE", "state": "IT" }, "geometry": { "type": "Point", "coordinates": [ 10.7275, 44.98278 ] } },
{ "type": "Feature", "properties": { "name": "Cividale del Friuli", "population": "9290", "province": "UD", "state": "IT" }, "geometry": { "type": "Point", "coordinates": [ 13.42861, 46.09019 ] } },
{ "type": "Feature", "properties": { "name": "Cittadella", "population": "14421", "province": "PD", "state": "IT" }, "geometry": { "type": "Point", "coordinates": [ 11.78453, 45.64523 ] } },
{ "type": "Feature", "properties": { "name": "Cisterna", "population": "713", "province": "UD", "state": "IT" }, "geometry": { "type": "Point", "coordinates": [ 12.98819, 46.08567 ] } },
{ "type": "Feature", "properties": { "name": "Cison di Valmarino", "population": "1178", "province": "TV", "state": "IT" }, "geometry": { "type": "Point", "coordinates": [ 12.14267, 45.96694 ] } },
{ "type": "Feature", "properties": { "name": "Cismon del Grappa", "population": "592", "province": "VI", "state": "IT" }, "geometry": { "type": "Point", "coordinates": [ 11.72816, 45.92026 ] } },
{ "type": "Feature", "properties": { "name": "Cimadolmo", "population": "1504", "province": "TV", "state": "IT" }, "geometry": { "type": "Point", "coordinates": [ 12.3651, 45.78524 ] } },
{ "type": "Feature", "properties": { "name": "Chiampo", "population": "10857", "province": "VI", "state": "IT" }, "geometry": { "type": "Point", "coordinates": [ 11.28285, 45.54746 ] } },
{ "type": "Feature", "properties": { "name": "Cesiomaggiore", "population": "843", "province": "BL", "state": "IT" }, "geometry": { "type": "Point", "coordinates": [ 11.98539, 46.08675 ] } },
{ "type": "Feature", "properties": { "name": "Cervignano del Friuli", "population": "12275", "province": "UD", "state": "IT" }, "geometry": { "type": "Point", "coordinates": [ 13.33929, 45.82082 ] } },
{ "type": "Feature", "properties": { "name": "Cerlongo", "population": "1418", "province": "MN", "state": "IT" }, "geometry": { "type": "Point", "coordinates": [ 10.64985, 45.27862 ] } },
{ "type": "Feature", "properties": { "name": "Cereta", "population": "611", "province": "MN", "state": "IT" }, "geometry": { "type": "Point", "coordinates": [ 10.64125, 45.30503 ] } },
{ "type": "Feature", "properties": { "name": "Cerese", "population": "7368", "province": "MN", "state": "IT" }, "geometry": { "type": "Point", "coordinates": [ 10.78877, 45.11814 ] } },
{ "type": "Feature", "properties": { "name": "Ceresara", "population": "1522", "province": "MN", "state": "IT" }, "geometry": { "type": "Point", "coordinates": [ 10.56958, 45.26228 ] } },
{ "type": "Feature", "properties": { "name": "Cerea", "population": "12869", "province": "VR", "state": "IT" }, "geometry": { "type": "Point", "coordinates": [ 11.21661, 45.18936 ] } },
{ "type": "Feature", "properties": { "name": "Cavriana", "population": "2362", "province": "MN", "state": "IT" }, "geometry": { "type": "Point", "coordinates": [ 10.59598, 45.34766 ] } },
{ "type": "Feature", "properties": { "name": "Cavolano-Schiavoi", "population": "1322", "province": "PN", "state": "IT" }, "geometry": { "type": "Point", "coordinates": [ 12.5, 45.93333 ] } },
{ "type": "Feature", "properties": { "name": "Cavajon Veronese", "population": "3502", "province": "VR", "state": "IT" }, "geometry": { "type": "Point", "coordinates": [ 10.77048, 45.54009 ] } },
{ "type": "Feature", "properties": { "name": "Castions di Strada", "population": "3647", "province": "UD", "state": "IT" }, "geometry": { "type": "Point", "coordinates": [ 13.18167, 45.91247 ] } },
{ "type": "Feature", "properties": { "name": "Castions delle Mura", "population": "968", "province": "UD", "state": "IT" }, "geometry": { "type": "Point", "coordinates": [ 13.3, 45.84667 ] } },
{ "type": "Feature", "properties": { "name": "Castelmassa", "population": "3421", "province": "RO", "state": "IT" }, "geometry": { "type": "Point", "coordinates": [ 11.31505, 45.01826 ] } },
{ "type": "Feature", "properties": { "name": "Castellucchio", "population": "3326", "province": "MN", "state": "IT" }, "geometry": { "type": "Point", "coordinates": [ 10.64875, 45.15038 ] } },
{ "type": "Feature", "properties": { "name": "Castello di Godego", "population": "3311", "province": "TV", "state": "IT" }, "geometry": { "type": "Point", "coordinates": [ 11.87998, 45.6927 ] } },
{ "type": "Feature", "properties": { "name": "Castelfranco Veneto", "population": "25545", "province": "TV", "state": "IT" }, "geometry": { "type": "Point", "coordinates": [ 11.92755, 45.67146 ] } },
{ "type": "Feature", "properties": { "name": "Castel d'Ario", "population": "3931", "province": "MN", "state": "IT" }, "geometry": { "type": "Point", "coordinates": [ 10.97449, 45.18798 ] } },
{ "type": "Feature", "properties": { "name": "Castelcucco", "population": "1667", "province": "TV", "state": "IT" }, "geometry": { "type": "Point", "coordinates": [ 11.88296, 45.83024 ] } },
{ "type": "Feature", "properties": { "name": "Castagnole", "population": "2983", "province": "TV", "state": "IT" }, "geometry": { "type": "Point", "coordinates": [ 12.1826, 45.68852 ] } },
{ "type": "Feature", "properties": { "name": "Castagnaro", "population": "2764", "province": "VR", "state": "IT" }, "geometry": { "type": "Point", "coordinates": [ 11.40911, 45.11795 ] } },
{ "type": "Feature", "properties": { "name": "Cassacco", "population": "2819", "province": "UD", "state": "IT" }, "geometry": { "type": "Point", "coordinates": [ 13.19236, 46.17345 ] } },
{ "type": "Feature", "properties": { "name": "Casoni", "population": "2509", "province": "VI", "state": "IT" }, "geometry": { "type": "Point", "coordinates": [ 11.81045, 45.75943 ] } },
{ "type": "Feature", "properties": { "name": "Caselle", "population": "2307", "province": "TV", "state": "IT" }, "geometry": { "type": "Point", "coordinates": [ 11.98004, 45.74965 ] } },
{ "type": "Feature", "properties": { "name": "Casale sul Sile", "population": "7951", "province": "TV", "state": "IT" }, "geometry": { "type": "Point", "coordinates": [ 12.32655, 45.59638 ] } },
{ "type": "Feature", "properties": { "name": "Casaleone", "population": "4943", "province": "VR", "state": "IT" }, "geometry": { "type": "Point", "coordinates": [ 11.19401, 45.16821 ] } },
{ "type": "Feature", "properties": { "name": "Casale di Scodosia", "population": "4661", "province": "PD", "state": "IT" }, "geometry": { "type": "Point", "coordinates": [ 11.47442, 45.19225 ] } },
{ "type": "Feature", "properties": { "name": "Carpesica", "population": "1155", "province": "TV", "state": "IT" }, "geometry": { "type": "Point", "coordinates": [ 12.29126, 45.95335 ] } },
{ "type": "Feature", "properties": { "name": "Carpeneto", "population": "552", "province": "UD", "state": "IT" }, "geometry": { "type": "Point", "coordinates": [ 13.17697, 45.99642 ] } },
{ "type": "Feature", "properties": { "name": "Carpacco", "population": "958", "province": "UD", "state": "IT" }, "geometry": { "type": "Point", "coordinates": [ 12.95917, 46.1191 ] } },
{ "type": "Feature", "properties": { "name": "Carlino", "population": "1339", "province": "UD", "state": "IT" }, "geometry": { "type": "Point", "coordinates": [ 13.18874, 45.80321 ] } },
{ "type": "Feature", "properties": { "name": "Carbonera", "population": "4276", "province": "TV", "state": "IT" }, "geometry": { "type": "Point", "coordinates": [ 12.28255, 45.69182 ] } },
{ "type": "Feature", "properties": { "name": "Carbonara di Po", "population": "937", "province": "MN", "state": "IT" }, "geometry": { "type": "Point", "coordinates": [ 11.22923, 45.03537 ] } },
{ "type": "Feature", "properties": { "name": "Cappella Maggiore", "population": "4151", "province": "TV", "state": "IT" }, "geometry": { "type": "Point", "coordinates": [ 12.35855, 45.97222 ] } },
{ "type": "Feature", "properties": { "name": "Caporiacco", "population": "592", "province": "UD", "state": "IT" }, "geometry": { "type": "Point", "coordinates": [ 13.09313, 46.14633 ] } },
{ "type": "Feature", "properties": { "name": "Caneva", "population": "6224", "province": "PN", "state": "IT" }, "geometry": { "type": "Point", "coordinates": [ 12.45261, 45.97078 ] } },
{ "type": "Feature", "properties": { "name": "Camposampiero", "population": "8722", "province": "PD", "state": "IT" }, "geometry": { "type": "Point", "coordinates": [ 11.93534, 45.56368 ] } },
{ "type": "Feature", "properties": { "name": "Campolongo al Torre", "population": "716", "province": "UD", "state": "IT" }, "geometry": { "type": "Point", "coordinates": [ 13.39667, 45.86389 ] } },
{ "type": "Feature", "properties": { "name": "Campoformido", "population": "2391", "province": "UD", "state": "IT" }, "geometry": { "type": "Point", "coordinates": [ 13.1575, 46.01952 ] } },
{ "type": "Feature", "properties": { "name": "Campocroce", "population": "833", "province": "TV", "state": "IT" }, "geometry": { "type": "Point", "coordinates": [ 12.21725, 45.58462 ] } },
{ "type": "Feature", "properties": { "name": "Campitello", "population": "1795", "province": "MN", "state": "IT" }, "geometry": { "type": "Point", "coordinates": [ 10.60632, 45.0875 ] } },
{ "type": "Feature", "properties": { "name": "Camalò", "population": "2099", "province": "TV", "state": "IT" }, "geometry": { "type": "Point", "coordinates": [ 12.17165, 45.75324 ] } },
{ "type": "Feature", "properties": { "name": "Caltana", "population": "2838", "province": "VE", "state": "IT" }, "geometry": { "type": "Point", "coordinates": [ 12.03002, 45.48278 ] } },
{ "type": "Feature", "properties": { "name": "Caerano di San Marco", "population": "7106", "province": "TV", "state": "IT" }, "geometry": { "type": "Point", "coordinates": [ 11.99851, 45.7816 ] } },
{ "type": "Feature", "properties": { "name": "Ca' degli Oppi", "population": "1349", "province": "VR", "state": "IT" }, "geometry": { "type": "Point", "coordinates": [ 11.13029, 45.2955 ] } },
{ "type": "Feature", "properties": { "name": "Buttrio", "population": "3947", "province": "UD", "state": "IT" }, "geometry": { "type": "Point", "coordinates": [ 13.33354, 46.01098 ] } },
{ "type": "Feature", "properties": { "name": "Buttapietra", "population": "4199", "province": "VR", "state": "IT" }, "geometry": { "type": "Point", "coordinates": [ 10.99915, 45.3411 ] } },
{ "type": "Feature", "properties": { "name": "Busta", "population": "554", "province": "TV", "state": "IT" }, "geometry": { "type": "Point", "coordinates": [ 12.00134, 45.74614 ] } },
{ "type": "Feature", "properties": { "name": "Bussolengo", "population": "15170", "province": "VR", "state": "IT" }, "geometry": { "type": "Point", "coordinates": [ 10.85371, 45.46903 ] } },
{ "type": "Feature", "properties": { "name": "Buscoldo", "population": "1659", "province": "MN", "state": "IT" }, "geometry": { "type": "Point", "coordinates": [ 10.69581, 45.0943 ] } },
{ "type": "Feature", "properties": { "name": "Buia", "population": "6327", "province": "UD", "state": "IT" }, "geometry": { "type": "Point", "coordinates": [ 13.11691, 46.21222 ] } },
{ "type": "Feature", "properties": { "name": "Budoia", "population": "2449", "province": "PN", "state": "IT" }, "geometry": { "type": "Point", "coordinates": [ 12.53429, 46.04453 ] } },
{ "type": "Feature", "properties": { "name": "Brugnera", "population": "5585", "province": "PN", "state": "IT" }, "geometry": { "type": "Point", "coordinates": [ 12.54178, 45.89947 ] } },
{ "type": "Feature", "properties": { "name": "Breda", "population": "2472", "province": "TV", "state": "IT" }, "geometry": { "type": "Point", "coordinates": [ 12.33083, 45.7225 ] } },
{ "type": "Feature", "properties": { "name": "Brazzano", "population": "616", "province": "GO", "state": "IT" }, "geometry": { "type": "Point", "coordinates": [ 13.45442, 45.97557 ] } },
{ "type": "Feature", "properties": { "name": "Brazzacco", "population": "762", "province": "UD", "state": "IT" }, "geometry": { "type": "Point", "coordinates": [ 13.15917, 46.12133 ] } },
{ "type": "Feature", "properties": { "name": "Bovolone", "population": "14036", "province": "VR", "state": "IT" }, "geometry": { "type": "Point", "coordinates": [ 11.11786, 45.26142 ] } },
{ "type": "Feature", "properties": { "name": "Marchesino-Bovo", "population": "1754", "province": "VR", "state": "IT" }, "geometry": { "type": "Point", "coordinates": [ 11.0, 45.36667 ] } },
{ "type": "Feature", "properties": { "name": "Bosco Chiesanuova", "population": "1289", "province": "VR", "state": "IT" }, "geometry": { "type": "Point", "coordinates": [ 11.03224, 45.62103 ] } },
{ "type": "Feature", "properties": { "name": "Borso del Grappa", "population": "4410", "province": "TV", "state": "IT" }, "geometry": { "type": "Point", "coordinates": [ 11.77367, 45.81025 ] } },
{ "type": "Feature", "properties": { "name": "Borgoricco-San Michele delle Badesse-Sant'Eufemia", "population": "6036", "province": "PD", "state": "IT" }, "geometry": { "type": "Point", "coordinates": [ 11.94111, 45.5352 ] } },
{ "type": "Feature", "properties": { "name": "Borgoforte", "population": "1048", "province": "MN", "state": "IT" }, "geometry": { "type": "Point", "coordinates": [ 10.75018, 45.05185 ] } },
{ "type": "Feature", "properties": { "name": "Bonisiolo", "population": "688", "province": "TV", "state": "IT" }, "geometry": { "type": "Point", "coordinates": [ 12.31753, 45.58233 ] } },
{ "type": "Feature", "properties": { "name": "Bonferraro", "population": "1323", "province": "VR", "state": "IT" }, "geometry": { "type": "Point", "coordinates": [ 11.01201, 45.1838 ] } },
{ "type": "Feature", "properties": { "name": "Bondeno", "population": "1167", "province": "MN", "state": "IT" }, "geometry": { "type": "Point", "coordinates": [ 10.86035, 44.93569 ] } },
{ "type": "Feature", "properties": { "name": "Bonavigo", "population": "720", "province": "VR", "state": "IT" }, "geometry": { "type": "Point", "coordinates": [ 11.27944, 45.25831 ] } },
{ "type": "Feature", "properties": { "name": "Bonavicina", "population": "1435", "province": "VR", "state": "IT" }, "geometry": { "type": "Point", "coordinates": [ 11.18419, 45.24426 ] } },
{ "type": "Feature", "properties": { "name": "Santo Stefano-Bonaldo", "population": "3185", "province": "VR", "state": "IT" }, "geometry": { "type": "Point", "coordinates": [ 11.33199, 45.36718 ] } },
{ "type": "Feature", "properties": { "name": "Bocca Callalta", "population": "581", "province": "TV", "state": "IT" }, "geometry": { "type": "Point", "coordinates": [ 12.44269, 45.70491 ] } },
{ "type": "Feature", "properties": { "name": "Blessano", "population": "751", "province": "UD", "state": "IT" }, "geometry": { "type": "Point", "coordinates": [ 13.10426, 46.03986 ] } },
{ "type": "Feature", "properties": { "name": "Bionde", "population": "554", "province": "VR", "state": "IT" }, "geometry": { "type": "Point", "coordinates": [ 11.1, 45.2 ] } },
{ "type": "Feature", "properties": { "name": "Bigolino", "population": "1541", "province": "TV", "state": "IT" }, "geometry": { "type": "Point", "coordinates": [ 12.01693, 45.86669 ] } },
{ "type": "Feature", "properties": { "name": "Bicinicco", "population": "796", "province": "UD", "state": "IT" }, "geometry": { "type": "Point", "coordinates": [ 13.253, 45.93211 ] } },
{ "type": "Feature", "properties": { "name": "Bibano", "population": "1561", "province": "TV", "state": "IT" }, "geometry": { "type": "Point", "coordinates": [ 12.43266, 45.90751 ] } },
{ "type": "Feature", "properties": { "name": "Bevilacqua", "population": "1066", "province": "VR", "state": "IT" }, "geometry": { "type": "Point", "coordinates": [ 11.39496, 45.23249 ] } },
{ "type": "Feature", "properties": { "name": "Bertiolo", "population": "1996", "province": "UD", "state": "IT" }, "geometry": { "type": "Point", "coordinates": [ 13.05606, 45.94463 ] } },
{ "type": "Feature", "properties": { "name": "Bergantino", "population": "2065", "province": "RO", "state": "IT" }, "geometry": { "type": "Point", "coordinates": [ 11.25237, 45.06145 ] } },
{ "type": "Feature", "properties": { "name": "Belluno", "population": "25064", "province": "BL", "state": "IT" }, "geometry": { "type": "Point", "coordinates": [ 12.2156, 46.14262 ] } },
{ "type": "Feature", "properties": { "name": "Belfiore", "population": "2318", "province": "VR", "state": "IT" }, "geometry": { "type": "Point", "coordinates": [ 11.21085, 45.38189 ] } },
{ "type": "Feature", "properties": { "name": "Begliano", "population": "1019", "province": "GO", "state": "IT" }, "geometry": { "type": "Point", "coordinates": [ 13.46586, 45.81984 ] } },
{ "type": "Feature", "properties": { "name": "Bassano del Grappa", "population": "38224", "province": "VI", "state": "IT" }, "geometry": { "type": "Point", "coordinates": [ 11.72739, 45.76656 ] } },
{ "type": "Feature", "properties": { "name": "Basiliano", "population": "4894", "province": "UD", "state": "IT" }, "geometry": { "type": "Point", "coordinates": [ 13.07, 46.01417 ] } },
{ "type": "Feature", "properties": { "name": "Bardolino", "population": "4873", "province": "VR", "state": "IT" }, "geometry": { "type": "Point", "coordinates": [ 10.73298, 45.54114 ] } },
{ "type": "Feature", "properties": { "name": "Bagnolo San Vito", "population": "1991", "province": "MN", "state": "IT" }, "geometry": { "type": "Point", "coordinates": [ 10.87747, 45.08892 ] } },
{ "type": "Feature", "properties": { "name": "Bagnolo", "population": "753", "province": "TV", "state": "IT" }, "geometry": { "type": "Point", "coordinates": [ 12.2731, 45.91117 ] } },
{ "type": "Feature", "properties": { "name": "Bagnolo", "population": "1159", "province": "VR", "state": "IT" }, "geometry": { "type": "Point", "coordinates": [ 10.89081, 45.27238 ] } },
{ "type": "Feature", "properties": { "name": "Badia Calavena", "population": "1678", "province": "VR", "state": "IT" }, "geometry": { "type": "Point", "coordinates": [ 11.15197, 45.56463 ] } },
{ "type": "Feature", "properties": { "name": "Attimis", "population": "1019", "province": "UD", "state": "IT" }, "geometry": { "type": "Point", "coordinates": [ 13.31127, 46.19022 ] } },
{ "type": "Feature", "properties": { "name": "Asolo", "population": "3852", "province": "TV", "state": "IT" }, "geometry": { "type": "Point", "coordinates": [ 11.91701, 45.78854 ] } },
{ "type": "Feature", "properties": { "name": "Arzignano", "population": "21247", "province": "VI", "state": "IT" }, "geometry": { "type": "Point", "coordinates": [ 11.33446, 45.52027 ] } },
{ "type": "Feature", "properties": { "name": "Arten", "population": "930", "province": "BL", "state": "IT" }, "geometry": { "type": "Point", "coordinates": [ 11.82862, 46.00784 ] } },
{ "type": "Feature", "properties": { "name": "Artegna", "population": "2588", "province": "UD", "state": "IT" }, "geometry": { "type": "Point", "coordinates": [ 13.15399, 46.23929 ] } },
{ "type": "Feature", "properties": { "name": "Arsiè", "population": "929", "province": "BL", "state": "IT" }, "geometry": { "type": "Point", "coordinates": [ 11.75794, 45.98211 ] } },
{ "type": "Feature", "properties": { "name": "Arcole", "population": "3654", "province": "VR", "state": "IT" }, "geometry": { "type": "Point", "coordinates": [ 11.2875, 45.36125 ] } },
{ "type": "Feature", "properties": { "name": "Arcade", "population": "3430", "province": "TV", "state": "IT" }, "geometry": { "type": "Point", "coordinates": [ 12.21972, 45.78428 ] } },
{ "type": "Feature", "properties": { "name": "Aquileia", "population": "2939", "province": "UD", "state": "IT" }, "geometry": { "type": "Point", "coordinates": [ 13.36779, 45.7683 ] } },
{ "type": "Feature", "properties": { "name": "Anzù", "population": "598", "province": "BL", "state": "IT" }, "geometry": { "type": "Point", "coordinates": [ 11.93302, 46.00894 ] } },
{ "type": "Feature", "properties": { "name": "Albaredo d'Adige", "population": "2783", "province": "VR", "state": "IT" }, "geometry": { "type": "Point", "coordinates": [ 11.27843, 45.31859 ] } },
{ "type": "Feature", "properties": { "name": "Albaredo", "population": "1375", "province": "TV", "state": "IT" }, "geometry": { "type": "Point", "coordinates": [ 12.01095, 45.66725 ] } },
{ "type": "Feature", "properties": { "name": "Aiello del Friuli", "population": "2199", "province": "UD", "state": "IT" },