{
"type": "FeatureCollection",
"name": "Municipalities",
"features": [
{ "type": "Feature", "properties": { "name": "Vittorito", "population": "898", "province": "AQ", "state": "IT" }, "geometry": { "type": "Point", "coordinates": [ 13.8167, 42.12703 ] } },
{ "type": "Feature", "properties": { "name": "Villetta Barrea", "population": "652", "province": "AQ", "state": "IT" }, "geometry": { "type": "Point", "coordinates": [ 13.93892, 41.77646 ] } },
{ "type": "Feature", "properties": { "name": "Villavallelonga", "population": "936", "province": "AQ", "state": "IT" }, "geometry": { "type": "Point", "coordinates": [ 13.62088, 41.87104 ] } },
{ "type": "Feature", "properties": { "name": "Villa Santa Lucia degli Abruzzi", "population": "159", "province": "AQ", "state": "IT" }, "geometry": { "type": "Point", "coordinates": [ 13.77792, 42.33286 ] } },
{ "type": "Feature", "properties": { "name": "Villa Latina", "population": "909", "province": "FR", "state": "IT" }, "geometry": { "type": "Point", "coordinates": [ 13.83591, 41.61522 ] } },
{ "type": "Feature", "properties": { "name": "Villalago", "population": "581", "province": "AQ", "state": "IT" }, "geometry": { "type": "Point", "coordinates": [ 13.83868, 41.93514 ] } },
{ "type": "Feature", "properties": { "name": "Villa Celiera", "population": "231", "province": "PE", "state": "IT" }, "geometry": { "type": "Point", "coordinates": [ 13.8586, 42.38184 ] } },
{ "type": "Feature", "properties": { "name": "Vico nel Lazio", "population": "809", "province": "FR", "state": "IT" }, "geometry": { "type": "Point", "coordinates": [ 13.34279, 41.77822 ] } },
{ "type": "Feature", "properties": { "name": "Vicoli", "population": "148", "province": "PE", "state": "IT" }, "geometry": { "type": "Point", "coordinates": [ 13.89688, 42.34095 ] } },
{ "type": "Feature", "properties": { "name": "Vicalvi", "population": "539", "province": "FR", "state": "IT" }, "geometry": { "type": "Point", "coordinates": [ 13.70813, 41.67809 ] } },
{ "type": "Feature", "properties": { "name": "Veroli", "population": "2419", "province": "FR", "state": "IT" }, "geometry": { "type": "Point", "coordinates": [ 13.41664, 41.69433 ] } },
{ "type": "Feature", "properties": { "name": "Vallepietra", "population": "306", "province": "RM", "state": "IT" }, "geometry": { "type": "Point", "coordinates": [ 13.23127, 41.92552 ] } },
{ "type": "Feature", "properties": { "name": "Vallecupa", "population": "42", "province": "AQ", "state": "IT" }, "geometry": { "type": "Point", "coordinates": [ 13.57467, 42.25366 ] } },
{ "type": "Feature", "properties": { "name": "Turrivalignani", "population": "211", "province": "PE", "state": "IT" }, "geometry": { "type": "Point", "coordinates": [ 14.02852, 42.26296 ] } },
{ "type": "Feature", "properties": { "name": "Trevi nel Lazio", "population": "851", "province": "FR", "state": "IT" }, "geometry": { "type": "Point", "coordinates": [ 13.24793, 41.86258 ] } },
{ "type": "Feature", "properties": { "name": "Trasacco", "population": "6144", "province": "AQ", "state": "IT" }, "geometry": { "type": "Point", "coordinates": [ 13.5327, 41.95742 ] } },
{ "type": "Feature", "properties": { "name": "Tossicia", "population": "283", "province": "TE", "state": "IT" }, "geometry": { "type": "Point", "coordinates": [ 13.64595, 42.54472 ] } },
{ "type": "Feature", "properties": { "name": "Torricella Peligna", "population": "961", "province": "CH", "state": "IT" }, "geometry": { "type": "Point", "coordinates": [ 14.25854, 42.02397 ] } },
{ "type": "Feature", "properties": { "name": "Torre de' Passeri", "population": "3174", "province": "PE", "state": "IT" }, "geometry": { "type": "Point", "coordinates": [ 13.9333, 42.24324 ] } },
{ "type": "Feature", "properties": { "name": "Torano", "population": "729", "province": "RI", "state": "IT" }, "geometry": { "type": "Point", "coordinates": [ 13.25981, 42.15335 ] } },
{ "type": "Feature", "properties": { "name": "Tocco da Casauria", "population": "2338", "province": "PE", "state": "IT" }, "geometry": { "type": "Point", "coordinates": [ 13.91547, 42.21203 ] } },
{ "type": "Feature", "properties": { "name": "Tione degli Abruzzi", "population": "140", "province": "AQ", "state": "IT" }, "geometry": { "type": "Point", "coordinates": [ 13.6357, 42.20393 ] } },
{ "type": "Feature", "properties": { "name": "Taranta Peligna", "population": "399", "province": "CH", "state": "IT" }, "geometry": { "type": "Point", "coordinates": [ 14.17103, 42.02052 ] } },
{ "type": "Feature", "properties": { "name": "Tagliacozzo", "population": "4637", "province": "AQ", "state": "IT" }, "geometry": { "type": "Point", "coordinates": [ 13.25469, 42.06933 ] } },
{ "type": "Feature", "properties": { "name": "Sulmona", "population": "21086", "province": "AQ", "state": "IT" }, "geometry": { "type": "Point", "coordinates": [ 13.92578, 42.04945 ] } },
{ "type": "Feature", "properties": { "name": "Sora", "population": "23758", "province": "FR", "state": "IT" }, "geometry": { "type": "Point", "coordinates": [ 13.61356, 41.71829 ] } },
{ "type": "Feature", "properties": { "name": "Settefrati", "population": "201", "province": "FR", "state": "IT" }, "geometry": { "type": "Point", "coordinates": [ 13.8507, 41.67045 ] } },
{ "type": "Feature", "properties": { "name": "Serramonacesca", "population": "372", "province": "PE", "state": "IT" }, "geometry": { "type": "Point", "coordinates": [ 14.09297, 42.24795 ] } },
{ "type": "Feature", "properties": { "name": "Secinaro", "population": "383", "province": "AQ", "state": "IT" }, "geometry": { "type": "Point", "coordinates": [ 13.68145, 42.15062 ] } },
{ "type": "Feature", "properties": { "name": "Scurcola Marsicana", "population": "1449", "province": "AQ", "state": "IT" }, "geometry": { "type": "Point", "coordinates": [ 13.33919, 42.06313 ] } },
{ "type": "Feature", "properties": { "name": "Scoppito", "population": "616", "province": "AQ", "state": "IT" }, "geometry": { "type": "Point", "coordinates": [ 13.25936, 42.36948 ] } },
{ "type": "Feature", "properties": { "name": "Scontrone", "population": "212", "province": "AQ", "state": "IT" }, "geometry": { "type": "Point", "coordinates": [ 14.0388, 41.74681 ] } },
{ "type": "Feature", "properties": { "name": "Scanno", "population": "1900", "province": "AQ", "state": "IT" }, "geometry": { "type": "Point", "coordinates": [ 13.87961, 41.90442 ] } },
{ "type": "Feature", "properties": { "name": "Scafa", "population": "2536", "province": "PE", "state": "IT" }, "geometry": { "type": "Point", "coordinates": [ 13.99665, 42.26575 ] } },
{ "type": "Feature", "properties": { "name": "Sassa", "population": "1557", "province": "AQ", "state": "IT" }, "geometry": { "type": "Point", "coordinates": [ 13.29924, 42.35204 ] } },
{ "type": "Feature", "properties": { "name": "San Vincenzo Valle Roveto Superiore", "population": "553", "province": "AQ", "state": "IT" }, "geometry": { "type": "Point", "coordinates": [ 13.5235, 41.8334 ] } },
{ "type": "Feature", "properties": { "name": "San Vincenzo Valle Roveto", "population": "213", "province": "AQ", "state": "IT" }, "geometry": { "type": "Point", "coordinates": [ 13.53566, 41.84452 ] } },
{ "type": "Feature", "properties": { "name": "San Valentino in Abruzzo Citeriore", "population": "1046", "province": "PE", "state": "IT" }, "geometry": { "type": "Point", "coordinates": [ 13.98561, 42.23304 ] } },
{ "type": "Feature", "properties": { "name": "Santo Stefano di Sessanio", "population": "118", "province": "AQ", "state": "IT" }, "geometry": { "type": "Point", "coordinates": [ 13.64477, 42.34339 ] } },
{ "type": "Feature", "properties": { "name": "Santopadre", "population": "395", "province": "FR", "state": "IT" }, "geometry": { "type": "Point", "coordinates": [ 13.63548, 41.60193 ] } },
{ "type": "Feature", "properties": { "name": "Sant'Eusanio Forconese", "population": "220", "province": "AQ", "state": "IT" }, "geometry": { "type": "Point", "coordinates": [ 13.52425, 42.28951 ] } },
{ "type": "Feature", "properties": { "name": "Sant'Eufemia a Maiella", "population": "274", "province": "PE", "state": "IT" }, "geometry": { "type": "Point", "coordinates": [ 14.02651, 42.12613 ] } },
{ "type": "Feature", "properties": { "name": "Sante Marie", "population": "558", "province": "AQ", "state": "IT" }, "geometry": { "type": "Point", "coordinates": [ 13.20163, 42.10369 ] } },
{ "type": "Feature", "properties": { "name": "San Pio delle Camere", "population": "345", "province": "AQ", "state": "IT" }, "geometry": { "type": "Point", "coordinates": [ 13.6557, 42.28423 ] } },
{ "type": "Feature", "properties": { "name": "San Panfilo d'Ocre", "population": "254", "province": "AQ", "state": "IT" }, "geometry": { "type": "Point", "coordinates": [ 13.47518, 42.28616 ] } },
{ "type": "Feature", "properties": { "name": "San Nicola", "population": "501", "province": "AQ", "state": "IT" }, "geometry": { "type": "Point", "coordinates": [ 13.27374, 42.30244 ] } },
{ "type": "Feature", "properties": { "name": "San Martino sulla Marrucina", "population": "501", "province": "CH", "state": "IT" }, "geometry": { "type": "Point", "coordinates": [ 14.21577, 42.22419 ] } },
{ "type": "Feature", "properties": { "name": "San Donato Val di Comino", "population": "1256", "province": "FR", "state": "IT" }, "geometry": { "type": "Point", "coordinates": [ 13.8122, 41.70726 ] } },
{ "type": "Feature", "properties": { "name": "San Demetrio Ne' Vestini", "population": "1728", "province": "AQ", "state": "IT" }, "geometry": { "type": "Point", "coordinates": [ 13.55519, 42.28963 ] } },
{ "type": "Feature", "properties": { "name": "San Benedetto in Perillis", "population": "145", "province": "AQ", "state": "IT" }, "geometry": { "type": "Point", "coordinates": [ 13.76996, 42.18377 ] } },
{ "type": "Feature", "properties": { "name": "San Benedetto dei Marsi", "population": "3896", "province": "AQ", "state": "IT" }, "geometry": { "type": "Point", "coordinates": [ 13.62381, 42.0076 ] } },
{ "type": "Feature", "properties": { "name": "Salle", "population": "311", "province": "PE", "state": "IT" }, "geometry": { "type": "Point", "coordinates": [ 13.96091, 42.17756 ] } },
{ "type": "Feature", "properties": { "name": "Rosciano", "population": "620", "province": "PE", "state": "IT" }, "geometry": { "type": "Point", "coordinates": [ 14.04555, 42.32227 ] } },
{ "type": "Feature", "properties": { "name": "Roio Piano", "population": "670", "province": "AQ", "state": "IT" }, "geometry": { "type": "Point", "coordinates": [ 13.35701, 42.32781 ] } },
{ "type": "Feature", "properties": { "name": "Roccavivi", "population": "1046", "province": "AQ", "state": "IT" }, "geometry": { "type": "Point", "coordinates": [ 13.53662, 41.81214 ] } },
{ "type": "Feature", "properties": { "name": "Roccasecca", "population": "1479", "province": "FR", "state": "IT" }, "geometry": { "type": "Point", "coordinates": [ 13.66711, 41.55132 ] } },
{ "type": "Feature", "properties": { "name": "Roccaraso", "population": "1218", "province": "AQ", "state": "IT" }, "geometry": { "type": "Point", "coordinates": [ 14.07846, 41.84872 ] } },
{ "type": "Feature", "properties": { "name": "Rocca Pia", "population": "183", "province": "AQ", "state": "IT" }, "geometry": { "type": "Point", "coordinates": [ 13.97726, 41.93429 ] } },
{ "type": "Feature", "properties": { "name": "San Rocco", "population": "703", "province": "CH", "state": "IT" }, "geometry": { "type": "Point", "coordinates": [ 14.12891, 42.24294 ] } },
{ "type": "Feature", "properties": { "name": "Rocca di Mezzo", "population": "1082", "province": "AQ", "state": "IT" }, "geometry": { "type": "Point", "coordinates": [ 13.5184, 42.20441 ] } },
{ "type": "Feature", "properties": { "name": "Rocca di Cambio", "population": "320", "province": "AQ", "state": "IT" }, "geometry": { "type": "Point", "coordinates": [ 13.48906, 42.23755 ] } },
{ "type": "Feature", "properties": { "name": "Rocca d'Arce", "population": "157", "province": "FR", "state": "IT" }, "geometry": { "type": "Point", "coordinates": [ 13.58511, 41.58712 ] } },
{ "type": "Feature", "properties": { "name": "Roccacasale", "population": "566", "province": "AQ", "state": "IT" }, "geometry": { "type": "Point", "coordinates": [ 13.88758, 42.12249 ] } },
{ "type": "Feature", "properties": { "name": "Rapino", "population": "1258", "province": "CH", "state": "IT" }, "geometry": { "type": "Point", "coordinates": [ 14.18493, 42.20931 ] } },
{ "type": "Feature", "properties": { "name": "Raiano", "population": "2726", "province": "AQ", "state": "IT" }, "geometry": { "type": "Point", "coordinates": [ 13.81386, 42.10158 ] } },
{ "type": "Feature", "properties": { "name": "Prezza", "population": "683", "province": "AQ", "state": "IT" }, "geometry": { "type": "Point", "coordinates": [ 13.83592, 42.05789 ] } },
{ "type": "Feature", "properties": { "name": "Preturo", "population": "2076", "province": "AQ", "state": "IT" }, "geometry": { "type": "Point", "coordinates": [ 13.29633, 42.37808 ] } },
{ "type": "Feature", "properties": { "name": "Pretoro", "population": "546", "province": "CH", "state": "IT" }, "geometry": { "type": "Point", "coordinates": [ 14.14248, 42.21923 ] } },
{ "type": "Feature", "properties": { "name": "Pratola Peligna", "population": "7043", "province": "AQ", "state": "IT" }, "geometry": { "type": "Point", "coordinates": [ 13.87467, 42.09701 ] } },
{ "type": "Feature", "properties": { "name": "Prata d'Ansidonia", "population": "330", "province": "AQ", "state": "IT" }, "geometry": { "type": "Point", "coordinates": [ 13.6083, 42.27793 ] } },
{ "type": "Feature", "properties": { "name": "Posta Fibreno", "population": "828", "province": "FR", "state": "IT" }, "geometry": { "type": "Point", "coordinates": [ 13.68013, 41.69189 ] } },
{ "type": "Feature", "properties": { "name": "Popoli", "population": "5394", "province": "PE", "state": "IT" }, "geometry": { "type": "Point", "coordinates": [ 13.82997, 42.16866 ] } },
{ "type": "Feature", "properties": { "name": "Poggio Picenze", "population": "1036", "province": "AQ", "state": "IT" }, "geometry": { "type": "Point", "coordinates": [ 13.54036, 42.32061 ] } },
{ "type": "Feature", "properties": { "name": "Poggio di Roio", "population": "981", "province": "AQ", "state": "IT" }, "geometry": { "type": "Point", "coordinates": [ 13.37749, 42.33177 ] } },
{ "type": "Feature", "properties": { "name": "Pizzoli", "population": "3413", "province": "AQ", "state": "IT" }, "geometry": { "type": "Point", "coordinates": [ 13.29886, 42.43603 ] } },
{ "type": "Feature", "properties": { "name": "Pizzoferrato", "population": "415", "province": "CH", "state": "IT" }, "geometry": { "type": "Point", "coordinates": [ 14.23632, 41.92244 ] } },
{ "type": "Feature", "properties": { "name": "Pietranico", "population": "277", "province": "PE", "state": "IT" }, "geometry": { "type": "Point", "coordinates": [ 13.91077, 42.27565 ] } },
{ "type": "Feature", "properties": { "name": "Pietracamela", "population": "162", "province": "TE", "state": "IT" }, "geometry": { "type": "Point", "coordinates": [ 13.55431, 42.52344 ] } },
{ "type": "Feature", "properties": { "name": "Picinisco", "population": "304", "province": "FR", "state": "IT" }, "geometry": { "type": "Point", "coordinates": [ 13.86791, 41.64568 ] } },
{ "type": "Feature", "properties": { "name": "Pianola", "population": "1178", "province": "AQ", "state": "IT" }, "geometry": { "type": "Point", "coordinates": [ 13.40394, 42.32341 ] } },
{ "type": "Feature", "properties": { "name": "Pettorano sul Gizio", "population": "515", "province": "AQ", "state": "IT" }, "geometry": { "type": "Point", "coordinates": [ 13.96001, 41.97326 ] } },
{ "type": "Feature", "properties": { "name": "Petrella Salto", "population": "260", "province": "RI", "state": "IT" }, "geometry": { "type": "Point", "coordinates": [ 13.06794, 42.29405 ] } },
{ "type": "Feature", "properties": { "name": "Pescosolido", "population": "652", "province": "FR", "state": "IT" }, "geometry": { "type": "Point", "coordinates": [ 13.6569, 41.74864 ] } },
{ "type": "Feature", "properties": { "name": "Pescosansonesco Nuovo", "population": "213", "province": "PE", "state": "IT" }, "geometry": { "type": "Point", "coordinates": [ 13.8848, 42.25524 ] } },
{ "type": "Feature", "properties": { "name": "Pescorocchiano", "population": "599", "province": "RI", "state": "IT" }, "geometry": { "type": "Point", "coordinates": [ 13.14715, 42.20623 ] } },
{ "type": "Feature", "properties": { "name": "Pescocostanzo", "population": "1055", "province": "AQ", "state": "IT" }, "geometry": { "type": "Point", "coordinates": [ 14.06614, 41.88722 ] } },
{ "type": "Feature", "properties": { "name": "Pescina", "population": "3492", "province": "AQ", "state": "IT" }, "geometry": { "type": "Point", "coordinates": [ 13.65116, 42.02351 ] } },
{ "type": "Feature", "properties": { "name": "Pescasseroli", "population": "2224", "province": "AQ", "state": "IT" }, "geometry": { "type": "Point", "coordinates": [ 13.78707, 41.80343 ] } },
{ "type": "Feature", "properties": { "name": "Penne", "population": "5985", "province": "PE", "state": "IT" }, "geometry": { "type": "Point", "coordinates": [ 13.92754, 42.45474 ] } },
{ "type": "Feature", "properties": { "name": "Pennapiedimonte", "population": "350", "province": "CH", "state": "IT" }, "geometry": { "type": "Point", "coordinates": [ 14.19432, 42.15563 ] } },
{ "type": "Feature", "properties": { "name": "Palombaro", "population": "549", "province": "CH", "state": "IT" }, "geometry": { "type": "Point", "coordinates": [ 14.22989, 42.12323 ] } },
{ "type": "Feature", "properties": { "name": "Palena", "population": "1308", "province": "CH", "state": "IT" }, "geometry": { "type": "Point", "coordinates": [ 14.13696, 41.98353 ] } },
{ "type": "Feature", "properties": { "name": "Paganica-Tempera", "population": "4205", "province": "AQ", "state": "IT" }, "geometry": { "type": "Point", "coordinates": [ 13.47138, 42.35715 ] } },
{ "type": "Feature", "properties": { "name": "Pacentro", "population": "1149", "province": "AQ", "state": "IT" }, "geometry": { "type": "Point", "coordinates": [ 13.99151, 42.05043 ] } },
{ "type": "Feature", "properties": { "name": "Ovindoli", "population": "911", "province": "AQ", "state": "IT" }, "geometry": { "type": "Point", "coordinates": [ 13.51603, 42.13765 ] } },
{ "type": "Feature", "properties": { "name": "Ortucchio", "population": "1757", "province": "AQ", "state": "IT" }, "geometry": { "type": "Point", "coordinates": [ 13.64651, 41.95525 ] } },
{ "type": "Feature", "properties": { "name": "Ortona dei Marsi", "population": "205", "province": "AQ", "state": "IT" }, "geometry": { "type": "Point", "coordinates": [ 13.72909, 41.9982 ] } },
{ "type": "Feature", "properties": { "name": "Opi", "population": "293", "province": "AQ", "state": "IT" }, "geometry": { "type": "Point", "coordinates": [ 13.82932, 41.77838 ] } },
{ "type": "Feature", "properties": { "name": "Ofena", "population": "454", "province": "AQ", "state": "IT" }, "geometry": { "type": "Point", "coordinates": [ 13.75864, 42.32536 ] } },
{ "type": "Feature", "properties": { "name": "Nocciano", "population": "470", "province": "PE", "state": "IT" }, "geometry": { "type": "Point", "coordinates": [ 13.98571, 42.33366 ] } },
{ "type": "Feature", "properties": { "name": "Nerito", "population": "354", "province": "TE", "state": "IT" }, "geometry": { "type": "Point", "coordinates": [ 13.47759, 42.54763 ] } },
{ "type": "Feature", "properties": { "name": "Navelli", "population": "376", "province": "AQ", "state": "IT" }, "geometry": { "type": "Point", "coordinates": [ 13.72961, 42.23721 ] } },
{ "type": "Feature", "properties": { "name": "Montorio al Vomano", "population": "5107", "province": "TE", "state": "IT" }, "geometry": { "type": "Point", "coordinates": [ 13.63715, 42.58123 ] } },
{ "type": "Feature", "properties": { "name": "Monticchio", "population": "1211", "province": "AQ", "state": "IT" }, "geometry": { "type": "Point", "coordinates": [ 13.46382, 42.32035 ] } },
{ "type": "Feature", "properties": { "name": "Monte San Giovanni Campano", "population": "696", "province": "FR", "state": "IT" }, "geometry": { "type": "Point", "coordinates": [ 13.51088, 41.6431 ] } },
{ "type": "Feature", "properties": { "name": "Montereale", "population": "574", "province": "AQ", "state": "IT" }, "geometry": { "type": "Point", "coordinates": [ 13.24585, 42.52332 ] } },
{ "type": "Feature", "properties": { "name": "Montenerodomo", "population": "424", "province": "CH", "state": "IT" }, "geometry": { "type": "Point", "coordinates": [ 14.25177, 41.97682 ] } },
{ "type": "Feature", "properties": { "name": "Montebello di Bertona", "population": "324", "province": "PE", "state": "IT" }, "geometry": { "type": "Point", "coordinates": [ 13.87119, 42.41686 ] } },
{ "type": "Feature", "properties": { "name": "Molina Aterno", "population": "401", "province": "AQ", "state": "IT" }, "geometry": { "type": "Point", "coordinates": [ 13.7354, 42.14903 ] } },
{ "type": "Feature", "properties": { "name": "Massa d'Albe-Corona", "population": "599", "province": "AQ", "state": "IT" }, "geometry": { "type": "Point", "coordinates": [ 13.39429, 42.10723 ] } },
{ "type": "Feature", "properties": { "name": "Marana", "population": "570", "province": "AQ", "state": "IT" }, "geometry": { "type": "Point", "coordinates": [ 13.22359, 42.49666 ] } },
{ "type": "Feature", "properties": { "name": "Manoppello", "population": "889", "province": "PE", "state": "IT" }, "geometry": { "type": "Point", "coordinates": [ 14.06024, 42.25918 ] } },
{ "type": "Feature", "properties": { "name": "Magliano De'Marsi", "population": "3144", "province": "AQ", "state": "IT" }, "geometry": { "type": "Point", "coordinates": [ 13.36379, 42.09153 ] } },
{ "type": "Feature", "properties": { "name": "Luco dei Marsi", "population": "5675", "province": "AQ", "state": "IT" }, "geometry": { "type": "Point", "coordinates": [ 13.47349, 41.95925 ] } },
{ "type": "Feature", "properties": { "name": "Lettopalena", "population": "362", "province": "CH", "state": "IT" }, "geometry": { "type": "Point", "coordinates": [ 14.15652, 42.00251 ] } },
{ "type": "Feature", "properties": { "name": "Lettomanoppello", "population": "3019", "province": "PE", "state": "IT" }, "geometry": { "type": "Point", "coordinates": [ 14.03843, 42.24336 ] } },
{ "type": "Feature", "properties": { "name": "Lecce Nei Marsi", "population": "1730", "province": "AQ", "state": "IT" }, "geometry": { "type": "Point", "coordinates": [ 13.6843, 41.93436 ] } },
{ "type": "Feature", "properties": { "name": "L'Aquila", "population": "33691", "province": "AQ", "state": "IT" }, "geometry": { "type": "Point", "coordinates": [ 13.39954, 42.35055 ] } },
{ "type": "Feature", "properties": { "name": "Lama dei Peligni", "population": "1163", "province": "CH", "state": "IT" }, "geometry": { "type": "Point", "coordinates": [ 14.18678, 42.04214 ] } },
{ "type": "Feature", "properties": { "name": "Isola del Liri", "population": "10805", "province": "FR", "state": "IT" }, "geometry": { "type": "Point", "coordinates": [ 13.59679, 41.68678 ] } },
{ "type": "Feature", "properties": { "name": "Isola del Gran Sasso d'Italia", "population": "2162", "province": "TE", "state": "IT" }, "geometry": { "type": "Point", "coordinates": [ 13.65721, 42.50324 ] } },
{ "type": "Feature", "properties": { "name": "Introdacqua", "population": "939", "province": "AQ", "state": "IT" }, "geometry": { "type": "Point", "coordinates": [ 13.89779, 42.00968 ] } },
{ "type": "Feature", "properties": { "name": "Guardiagrele", "population": "4789", "province": "CH", "state": "IT" }, "geometry": { "type": "Point", "coordinates": [ 14.21939, 42.19406 ] } },
{ "type": "Feature", "properties": { "name": "Guarcino", "population": "1157", "province": "FR", "state": "IT" }, "geometry": { "type": "Point", "coordinates": [ 13.31439, 41.79917 ] } },
{ "type": "Feature", "properties": { "name": "Goriano Sicoli", "population": "597", "province": "AQ", "state": "IT" }, "geometry": { "type": "Point", "coordinates": [ 13.77459, 42.08011 ] } },
{ "type": "Feature", "properties": { "name": "Gioia dei Marsi", "population": "2099", "province": "AQ", "state": "IT" }, "geometry": { "type": "Point", "coordinates": [ 13.69057, 41.95697 ] } },
{ "type": "Feature", "properties": { "name": "Gessopalena", "population": "1013", "province": "CH", "state": "IT" }, "geometry": { "type": "Point", "coordinates": [ 14.27367, 42.05521 ] } },
{ "type": "Feature", "properties": { "name": "Gamberale", "population": "112", "province": "CH", "state": "IT" }, "geometry": { "type": "Point", "coordinates": [ 14.20845, 41.90529 ] } },
{ "type": "Feature", "properties": { "name": "Gallinaro", "population": "231", "province": "FR", "state": "IT" }, "geometry": { "type": "Point", "coordinates": [ 13.79799, 41.65502 ] } },
{ "type": "Feature", "properties": { "name": "Gagliano Aterno", "population": "255", "province": "AQ", "state": "IT" }, "geometry": { "type": "Point", "coordinates": [ 13.70023, 42.12598 ] } },
{ "type": "Feature", "properties": { "name": "Fossa", "population": "546", "province": "AQ", "state": "IT" }, "geometry": { "type": "Point", "coordinates": [ 13.48779, 42.29273 ] } },
{ "type": "Feature", "properties": { "name": "Fontechiari", "population": "241", "province": "FR", "state": "IT" }, "geometry": { "type": "Point", "coordinates": [ 13.67504, 41.66788 ] } },
{ "type": "Feature", "properties": { "name": "Fontecchio", "population": "323", "province": "AQ", "state": "IT" }, "geometry": { "type": "Point", "coordinates": [ 13.60613, 42.23027 ] } },
{ "type": "Feature", "properties": { "name": "Collefontana-Fontana Liri Inferiore", "population": "2532", "province": "FR", "state": "IT" }, "geometry": { "type": "Point", "coordinates": [ 13.54945, 41.61166 ] } },
{ "type": "Feature", "properties": { "name": "Filettino", "population": "516", "province": "FR", "state": "IT" }, "geometry": { "type": "Point", "coordinates": [ 13.32531, 41.89131 ] } },
{ "type": "Feature", "properties": { "name": "Fiamignano", "population": "184", "province": "RI", "state": "IT" }, "geometry": { "type": "Point", "coordinates": [ 13.12413, 42.26546 ] } },
{ "type": "Feature", "properties": { "name": "Farindola", "population": "498", "province": "PE", "state": "IT" }, "geometry": { "type": "Point", "coordinates": [ 13.82137, 42.44292 ] } },
{ "type": "Feature", "properties": { "name": "Fara San Martino", "population": "1506", "province": "CH", "state": "IT" }, "geometry": { "type": "Point", "coordinates": [ 14.20896, 42.09248 ] } },
{ "type": "Feature", "properties": { "name": "Fara Filiorum Petri", "population": "1260", "province": "CH", "state": "IT" }, "geometry": { "type": "Point", "coordinates": [ 14.18026, 42.24152 ] } },
{ "type": "Feature", "properties": { "name": "Fano Adriano", "population": "214", "province": "TE", "state": "IT" }, "geometry": { "type": "Point", "coordinates": [ 13.53764, 42.5523 ] } },
{ "type": "Feature", "properties": { "name": "Cugnoli", "population": "416", "province": "PE", "state": "IT" }, "geometry": { "type": "Point", "coordinates": [ 13.9349, 42.30692 ] } },
{ "type": "Feature", "properties": { "name": "Crognaleto", "population": "28", "province": "TE", "state": "IT" }, "geometry": { "type": "Point", "coordinates": [ 13.4889, 42.58771 ] } },
{ "type": "Feature", "properties": { "name": "Corvaro", "population": "1715", "province": "RI", "state": "IT" }, "geometry": { "type": "Point", "coordinates": [ 13.26496, 42.20538 ] } },
{ "type": "Feature", "properties": { "name": "Corvara", "population": "15", "province": "PE", "state": "IT" }, "geometry": { "type": "Point", "coordinates": [ 13.87363, 42.27511 ] } },
{ "type": "Feature", "properties": { "name": "Corfinio", "population": "940", "province": "AQ", "state": "IT" }, "geometry": { "type": "Point", "coordinates": [ 13.8394, 42.12149 ] } },
{ "type": "Feature", "properties": { "name": "Coppito", "population": "2903", "province": "AQ", "state": "IT" }, "geometry": { "type": "Point", "coordinates": [ 13.34358, 42.3673 ] } },
{ "type": "Feature", "properties": { "name": "Colli", "population": "639", "province": "FR", "state": "IT" }, "geometry": { "type": "Point", "coordinates": [ 13.5334, 41.60439 ] } },
{ "type": "Feature", "properties": { "name": "Colle San Magno", "population": "513", "province": "FR", "state": "IT" }, "geometry": { "type": "Point", "coordinates": [ 13.69485, 41.55019 ] } },
{ "type": "Feature", "properties": { "name": "Collepietro", "population": "235", "province": "AQ", "state": "IT" }, "geometry": { "type": "Point", "coordinates": [ 13.78101, 42.22089 ] } },
{ "type": "Feature", "properties": { "name": "Collepardo", "population": "544", "province": "FR", "state": "IT" }, "geometry": { "type": "Point", "coordinates": [ 13.36846, 41.76417 ] } },
{ "type": "Feature", "properties": { "name": "Collelongo", "population": "1313", "province": "AQ", "state": "IT" }, "geometry": { "type": "Point", "coordinates": [ 13.5838, 41.88659 ] } },
{ "type": "Feature", "properties": { "name": "Colledimacine", "population": "237", "province": "CH", "state": "IT" }, "geometry": { "type": "Point", "coordinates": [ 14.20079, 42.0037 ] } },
{ "type": "Feature", "properties": { "name": "Colledara", "population": "564", "province": "TE", "state": "IT" }, "geometry": { "type": "Point", "coordinates": [ 13.67556, 42.53918 ] } },
{ "type": "Feature", "properties": { "name": "Collebrincioni", "population": "543", "province": "AQ", "state": "IT" }, "geometry": { "type": "Point", "coordinates": [ 13.41532, 42.39807 ] } },
{ "type": "Feature", "properties": { "name": "Colleberardi", "population": "509", "province": "FR", "state": "IT" }, "geometry": { "type": "Point", "coordinates": [ 13.45302, 41.68635 ] } },
{ "type": "Feature", "properties": { "name": "Collarmele", "population": "941", "province": "AQ", "state": "IT" }, "geometry": { "type": "Point", "coordinates": [ 13.6267, 42.06031 ] } },
{ "type": "Feature", "properties": { "name": "Cocullo", "population": "186", "province": "AQ", "state": "IT" }, "geometry": { "type": "Point", "coordinates": [ 13.775, 42.03283 ] } },
{ "type": "Feature", "properties": { "name": "Civitella Roveto", "population": "2687", "province": "AQ", "state": "IT" }, "geometry": { "type": "Point", "coordinates": [ 13.42396, 41.91329 ] } },
{ "type": "Feature", "properties": { "name": "Civitella Messer Raimondo", "population": "257", "province": "CH", "state": "IT" }, "geometry": { "type": "Point", "coordinates": [ 14.21701, 42.08893 ] } },
{ "type": "Feature", "properties": { "name": "Civitella Casanova", "population": "456", "province": "PE", "state": "IT" }, "geometry": { "type": "Point", "coordinates": [ 13.88514, 42.36391 ] } },
{ "type": "Feature", "properties": { "name": "Civitella Alfedena", "population": "300", "province": "AQ", "state": "IT" }, "geometry": { "type": "Point", "coordinates": [ 13.94271, 41.76533 ] } },
{ "type": "Feature", "properties": { "name": "Civitaquana", "population": "450", "province": "PE", "state": "IT" }, "geometry": { "type": "Point", "coordinates": [ 13.90012, 42.32578 ] } },
{ "type": "Feature", "properties": { "name": "Civita d'Antino", "population": "224", "province": "AQ", "state": "IT" }, "geometry": { "type": "Point", "coordinates": [ 13.47215, 41.88629 ] } },
{ "type": "Feature", "properties": { "name": "Cese", "population": "587", "province": "AQ", "state": "IT" }, "geometry": { "type": "Point", "coordinates": [ 13.38886, 42.02454 ] } },
{ "type": "Feature", "properties": { "name": "Cerchio", "population": "1621", "province": "AQ", "state": "IT" }, "geometry": { "type": "Point", "coordinates": [ 13.60006, 42.06357 ] } },
{ "type": "Feature", "properties": { "name": "Cerchiara", "population": "737", "province": "TE", "state": "IT" }, "geometry": { "type": "Point", "coordinates": [ 13.62726, 42.50366 ] } },
{ "type": "Feature", "properties": { "name": "Celano", "population": "9966", "province": "AQ", "state": "IT" }, "geometry": { "type": "Point", "coordinates": [ 13.517, 42.08077 ] } },
{ "type": "Feature", "properties": { "name": "Catignano", "population": "743", "province": "PE", "state": "IT" }, "geometry": { "type": "Point", "coordinates": [ 13.9519, 42.34697 ] } },
{ "type": "Feature", "properties": { "name": "Castiglione a Casauria", "population": "281", "province": "PE", "state": "IT" }, "geometry": { "type": "Point", "coordinates": [ 13.89832, 42.23601 ] } },
{ "type": "Feature", "properties": { "name": "Castelvecchio Subequo", "population": "964", "province": "AQ", "state": "IT" }, "geometry": { "type": "Point", "coordinates": [ 13.72868, 42.12881 ] } },
{ "type": "Feature", "properties": { "name": "Castelvecchio Calvisio", "population": "198", "province": "AQ", "state": "IT" }, "geometry": { "type": "Point", "coordinates": [ 13.6872, 42.31134 ] } },
{ "type": "Feature", "properties": { "name": "Castelliri", "population": "2300", "province": "FR", "state": "IT" }, "geometry": { "type": "Point", "coordinates": [ 13.53978, 41.67764 ] } },
{ "type": "Feature", "properties": { "name": "Castelli", "population": "271", "province": "TE", "state": "IT" }, "geometry": { "type": "Point", "coordinates": [ 13.71201, 42.48476 ] } },
{ "type": "Feature", "properties": { "name": "Castellafiume", "population": "1059", "province": "AQ", "state": "IT" }, "geometry": { "type": "Point", "coordinates": [ 13.3344, 41.98913 ] } },
{ "type": "Feature", "properties": { "name": "Castel di Sangro", "population": "5891", "province": "AQ", "state": "IT" }, "geometry": { "type": "Point", "coordinates": [ 14.10653, 41.78392 ] } },
{ "type": "Feature", "properties": { "name": "Castel di Ieri", "population": "329", "province": "AQ", "state": "IT" }, "geometry": { "type": "Point", "coordinates": [ 13.742, 42.11353 ] } },
{ "type": "Feature", "properties": { "name": "Castel del Monte", "population": "447", "province": "AQ", "state": "IT" }, "geometry": { "type": "Point", "coordinates": [ 13.72592, 42.36544 ] } },
{ "type": "Feature", "properties": { "name": "Casalvieri", "population": "386", "province": "FR", "state": "IT" }, "geometry": { "type": "Point", "coordinates": [ 13.71363, 41.63329 ] } },
{ "type": "Feature", "properties": { "name": "Casalincontrada", "population": "1662", "province": "CH", "state": "IT" }, "geometry": { "type": "Point", "coordinates": [ 14.13511, 42.29744 ] } },
{ "type": "Feature", "properties": { "name": "Casalattico", "population": "106", "province": "FR", "state": "IT" }, "geometry": { "type": "Point", "coordinates": [ 13.72563, 41.62213 ] } },
{ "type": "Feature", "properties": { "name": "Casacanditella", "population": "789", "province": "CH", "state": "IT" }, "geometry": { "type": "Point", "coordinates": [ 14.2004, 42.24643 ] } },
{ "type": "Feature", "properties": { "name": "Carpineto della Nora", "population": "175", "province": "PE", "state": "IT" }, "geometry": { "type": "Point", "coordinates": [ 13.86062, 42.33365 ] } },
{ "type": "Feature", "properties": { "name": "Carnello", "population": "718", "province": "FR", "state": "IT" }, "geometry": { "type": "Point", "coordinates": [ 13.61038, 41.68273 ] } },
{ "type": "Feature", "properties": { "name": "Carapelle Calvisio", "population": "95", "province": "AQ", "state": "IT" }, "geometry": { "type": "Point", "coordinates": [ 13.68643, 42.29908 ] } },
{ "type": "Feature", "properties": { "name": "Caramanico Terme", "population": "1042", "province": "PE", "state": "IT" }, "geometry": { "type": "Point", "coordinates": [ 14.0048, 42.15593 ] } },
{ "type": "Feature", "properties": { "name": "Cappelle", "population": "910", "province": "AQ", "state": "IT" }, "geometry": { "type": "Point", "coordinates": [ 13.37997, 42.0668 ] } },
{ "type": "Feature", "properties": { "name": "Cappadocia", "population": "243", "province": "AQ", "state": "IT" }, "geometry": { "type": "Point", "coordinates": [ 13.27806, 42.00755 ] } },
{ "type": "Feature", "properties": { "name": "Caporciano", "population": "197", "province": "AQ", "state": "IT" }, "geometry": { "type": "Point", "coordinates": [ 13.67455, 42.25001 ] } },
{ "type": "Feature", "properties": { "name": "Capitignano", "population": "436", "province": "AQ", "state": "IT" }, "geometry": { "type": "Point", "coordinates": [ 13.30122, 42.52041 ] } },
{ "type": "Feature", "properties": { "name": "Capistrello", "population": "4795", "province": "AQ", "state": "IT" }, "geometry": { "type": "Point", "coordinates": [ 13.39616, 41.97223 ] } },
{ "type": "Feature", "properties": { "name": "Capestrano", "population": "698", "province": "AQ", "state": "IT" }, "geometry": { "type": "Point", "coordinates": [ 13.76779, 42.26807 ] } },
{ "type": "Feature", "properties": { "name": "Cansano", "population": "281", "province": "AQ", "state": "IT" }, "geometry": { "type": "Point", "coordinates": [ 14.01341, 42.0035 ] } },
{ "type": "Feature", "properties": { "name": "Campotosto", "population": "244", "province": "AQ", "state": "IT" }, "geometry": { "type": "Point", "coordinates": [ 13.36799, 42.55884 ] } },
{ "type": "Feature", "properties": { "name": "Campoli Appennino", "population": "961", "province": "FR", "state": "IT" }, "geometry": { "type": "Point", "coordinates": [ 13.68326, 41.73539 ] } },
{ "type": "Feature", "properties": { "name": "Campo di Giove", "population": "825", "province": "AQ", "state": "IT" }, "geometry": { "type": "Point", "coordinates": [ 14.03941, 42.01013 ] } },
{ "type": "Feature", "properties": { "name": "Camarda", "population": "512", "province": "AQ", "state": "IT" }, "geometry": { "type": "Point", "coordinates": [ 13.49928, 42.39547 ] } },
{ "type": "Feature", "properties": { "name": "Calascio", "population": "136", "province": "AQ", "state": "IT" }, "geometry": { "type": "Point", "coordinates": [ 13.69699, 42.32595 ] } },
{ "type": "Feature", "properties": { "name": "Bussi sul Tirino", "population": "2432", "province": "PE", "state": "IT" }, "geometry": { "type": "Point", "coordinates": [ 13.82511, 42.21321 ] } },
{ "type": "Feature", "properties": { "name": "Brittoli", "population": "109", "province": "PE", "state": "IT" }, "geometry": { "type": "Point", "coordinates": [ 13.86026, 42.31518 ] } },
{ "type": "Feature", "properties": { "name": "Boville Ernica", "population": "918", "province": "FR", "state": "IT" }, "geometry": { "type": "Point", "coordinates": [ 13.4727, 41.64252 ] } },
{ "type": "Feature", "properties": { "name": "Borgorose", "population": "824", "province": "RI", "state": "IT" }, "geometry": { "type": "Point", "coordinates": [ 13.23282, 42.19077 ] } },
{ "type": "Feature", "properties": { "name": "Borbona", "population": "533", "province": "RI", "state": "IT" }, "geometry": { "type": "Point", "coordinates": [ 13.13206, 42.50939 ] } },
{ "type": "Feature", "properties": { "name": "Bolognano", "population": "227", "province": "PE", "state": "IT" }, "geometry": { "type": "Point", "coordinates": [ 13.96011, 42.21814 ] } },
{ "type": "Feature", "properties": { "name": "Bisegna", "population": "173", "province": "AQ", "state": "IT" }, "geometry": { "type": "Point", "coordinates": [ 13.7576, 41.92113 ] } },
{ "type": "Feature", "properties": { "name": "Belmonte Castello", "population": "323", "province": "FR", "state": "IT" }, "geometry": { "type": "Point", "coordinates": [ 13.81581, 41.57742 ] } },
{ "type": "Feature", "properties": { "name": "Progetto Case Bazzano", "population": "1575", "province": "AQ", "state": "IT" }, "geometry": { "type": "Point", "coordinates": [ 13.4441, 42.33643 ] } },
{ "type": "Feature", "properties": { "name": "Barrea", "population": "722", "province": "AQ", "state": "IT" }, "geometry": { "type": "Point", "coordinates": [ 13.99095, 41.75543 ] } },
{ "type": "Feature", "properties": { "name": "Barisciano", "population": "1250", "province": "AQ", "state": "IT" }, "geometry": { "type": "Point", "coordinates": [ 13.59036, 42.32465 ] } },
{ "type": "Feature", "properties": { "name": "Barete", "population": "386", "province": "AQ", "state": "IT" }, "geometry": { "type": "Point", "coordinates": [ 13.28061, 42.45009 ] } },
{ "type": "Feature", "properties": { "name": "Balsorano Nuovo", "population": "1992", "province": "AQ", "state": "IT" }, "geometry": { "type": "Point", "coordinates": [ 13.56069, 41.80881 ] } },
{ "type": "Feature", "properties": { "name": "Avezzano", "population": "37808", "province": "AQ", "state": "IT" }, "geometry": { "type": "Point", "coordinates": [ 13.42641, 42.02896 ] } },
{ "type": "Feature", "properties": { "name": "Atina", "population": "883", "province": "FR", "state": "IT" }, "geometry": { "type": "Point", "coordinates": [ 13.79905, 41.62004 ] } },
{ "type": "Feature", "properties": { "name": "Ateleta", "population": "606", "province": "AQ", "state": "IT" }, "geometry": { "type": "Point", "coordinates": [ 14.19806, 41.85435 ] } },
{ "type": "Feature", "properties": { "name": "Arpino", "population": "1535", "province": "FR", "state": "IT" }, "geometry": { "type": "Point", "coordinates": [ 13.61155, 41.64705 ] } },
{ "type": "Feature", "properties": { "name": "Arischia", "population": "992", "province": "AQ", "state": "IT" }, "geometry": { "type": "Point", "coordinates": [ 13.34075, 42.41818 ] } },
{ "type": "Feature", "properties": { "name": "Arce", "population": "2154", "province": "FR", "state": "IT" }, "geometry": { "type": "Point", "coordinates": [ 13.58571, 41.57787 ] } },
{ "type": "Feature", "properties": { "name": "Anversa degli Abruzzi", "population": "347", "province": "AQ", "state": "IT" }, "geometry": { "type": "Point", "coordinates": [ 13.80379, 41.99478 ] } },
{ "type": "Feature", "properties": { "name": "Antrosano", "population": "917", "province": "AQ", "state": "IT" }, "geometry": { "type": "Point", "coordinates": [ 13.41018, 42.06406 ] } },
{ "type": "Feature", "properties": { "name": "Antrodoco", "population": "2517", "province": "RI", "state": "IT" }, "geometry": { "type": "Point", "coordinates": [ 13.07673, 42.41498 ] } },
{ "type": "Feature", "properties": { "name": "Anitrella-Chiaiamari", "population": "2108", "province": "FR", "state": "IT" }, "geometry": { "type": "Point", "coordinates": [ 13.54835, 41.63825 ] } },
{ "type": "Feature", "properties": { "name": "Amatrice", "population": "1046", "province": "RI", "state": "IT" }, "geometry": { "type": "Point", "coordinates": [ 13.29509, 42.62664 ] } },
{ "type": "Feature", "properties": { "name": "Alvito", "population": "988", "province": "FR", "state": "IT" }, "geometry": { "type": "Point", "coordinates": [ 13.74795, 41.69002 ] } },
{ "type": "Feature", "properties": { "name": "Alfedena", "population": "785", "province": "AQ", "state": "IT" }, "geometry": { "type": "Point", "coordinates": [ 14.035, 41.73545 ] } },
{ "type": "Feature", "properties": { "name": "Alanno", "population": "754", "province": "PE", "state": "IT" }, "geometry": { "type": "Point", "coordinates": [ 13.97084, 42.29552 ] } },
{ "type": "Feature", "properties": { "name": "Aielli", "population": "600", "province": "AQ", "state": "IT" }, "geometry": { "type": "Point", "coordinates": [ 13.59113, 42.08146 ] } },
{ "type": "Feature", "properties": { "name": "Acciano", "population": "143", "province": "AQ", "state": "IT" }, "geometry": { "type": "Point", "coordinates": [ 13.71783, 42.17677 ] } },
{ "type": "Feature", "properties": { "name": "Abbateggio", "population": "196", "province": "PE", "state": "IT" }, "geometry": { "type": "Point", "coordinates": [ 14.01001, 42.22421 ] } },
{ "type": "Feature", "properties": { "name": "Cortino", "population": "133", "province": "TE", "state": "IT" }, "geometry": { "type": "Point", "coordinates": [ 13.50774, 42.62186 ] } },
{ "type": "Feature", "properties": { "name": "Broccostella", "population": "1507", "province": "FR", "state": "IT" }, "geometry": { "type": "Point", "coordinates": [ 13.63531, 41.69972 ] } },
{ "type": "Feature", "properties": { "name": "Balsorano", "population": "3705", "province": "AQ", "state": "IT" }, "geometry": { "type": "Point", "coordinates": [ 13.5598, 41.80982 ] } },
{ "type": "Feature", "properties": { "name": "Lucoli", "population": "944", "province": "AQ", "state": "IT" }, "geometry": { "type": "Point", "coordinates": [ 13.33799, 42.29093 ] } },
{ "type": "Feature", "properties": { "name": "Villagrande", "population": "734", "province": "AQ", "state": "IT" }, "geometry": { "type": "Point", "coordinates": [ 13.29999, 42.29533 ] } },
{ "type": "Feature", "properties": { "name": "Cagnano Amiterno", "population": "330", "province": "AQ", "state": "IT" }, "geometry": { "type": "Point", "coordinates": [ 13.22789, 42.45744 ] } },
{ "type": "Feature", "properties": { "name": "Villa Sant'Angelo", "population": "372", "province": "AQ", "state": "IT" }, "geometry": { "type": "Point", "coordinates": [ 13.5371, 42.27043 ] } },
{ "type": "Feature", "properties": { "name": "Bugnara", "population": "776", "province": "AQ", "state": "IT" }, "geometry": { "type": "Point", "coordinates": [ 13.86141, 42.02383 ] } },
{ "type": "Feature", "properties": { "name": "Morino", "population": "594", "province": "AQ", "state": "IT" }, "geometry": { "type": "Point", "coordinates": [ 13.457, 41.86442 ] } },
{ "type": "Feature", "properties": { "name": "Rivisondoli", "population": "647", "province": "AQ", "state": "IT" }, "geometry": { "type": "Point", "coordinates": [ 14.06671, 41.87023 ] } },
{ "type": "Feature", "properties": { "name": "Roccamorice", "population": "388", "province": "PE", "state": "IT" }, "geometry": { "type": "Point", "coordinates": [ 14.02531, 42.21274 ] } },
{ "type": "Feature", "properties": { "name": "Tornimparte", "population": "3042", "province": "AQ", "state": "IT" }, "geometry": { "type": "Point", "coordinates": [ 13.30092, 42.29007 ] } },
{ "type": "Feature", "properties": { "name": "Manoppello Scalo", "population": "3641", "province": "PE", "state": "IT" }, "geometry": { "type": "Point", "coordinates": [ 14.05363, 42.30762 ] } },
{ "type": "Feature", "properties": { "name": "Case Campoli-Panetta", "population": "1622", "province": "FR", "state": "IT" }, "geometry": { "type": "Point", "coordinates": [ 13.4717, 41.67296 ] } },
{ "type": "Feature", "properties": { "name": "Cominio", "population": "1008", "province": "AQ", "state": "IT" }, "geometry": { "type": "Point", "coordinates": [ 13.4325, 42.31248 ] } },
{ "type": "Feature", "properties": { "name": "Case Cibba-Sciascia-Crocifisso-Tondarella-Virano", "population": "998", "province": "FR", "state": "IT" }, "geometry": { "type": "Point", "coordinates": [ 13.42654, 41.70842 ] } },
{ "type": "Feature", "properties": { "name": "Badia", "population": "847", "province": "AQ", "state": "IT" }, "geometry": { "type": "Point", "coordinates": [ 13.91733, 42.08989 ] } },
{ "type": "Feature", "properties": { "name": "Fontana Scurano", "population": "809", "province": "FR", "state": "IT" }, "geometry": { "type": "Point", "coordinates": [ 13.36601, 41.73487 ] } },
{ "type": "Feature", "properties": { "name": "Intignano", "population": "791", "province": "FR", "state": "IT" }, "geometry": { "type": "Point", "coordinates": [ 13.37508, 41.72719 ] } },
{ "type": "Feature", "properties": { "name": "Venere", "population": "772", "province": "AQ", "state": "IT" }, "geometry": { "type": "Point", "coordinates": [ 13.64549, 41.99101 ] } },
{ "type": "Feature", "properties": { "name": "Ticchione", "population": "757", "province": "PE", "state": "IT" }, "geometry": { "type": "Point", "coordinates": [ 14.01126, 42.29167 ] } },
{ "type": "Feature", "properties": { "name": "Antica Colle Piscioso", "population": "743", "province": "FR", "state": "IT" }, "geometry": { "type": "Point", "coordinates": [ 13.48151, 41.66183 ] } },
{ "type": "Feature", "properties": { "name": "La Grancia", "population": "711", "province": "AQ", "state": "IT" }, "geometry": { "type": "Point", "coordinates": [ 13.43349, 41.86143 ] } },
{ "type": "Feature", "properties": { "name": "Collelavena", "population": "706", "province": "FR", "state": "IT" }, "geometry": { "type": "Point", "coordinates": [ 13.32072, 41.75603 ] } },
{ "type": "Feature", "properties": { "name": "Rotabile", "population": "659", "province": "FR", "state": "IT" }, "geometry": { "type": "Point", "coordinates": [ 13.46405, 41.66093 ] } },
{ "type": "Feature", "properties": { "name": "Villa Oliveti", "population": "583", "province": "PE", "state": "IT" }, "geometry": { "type": "Point", "coordinates": [ 14.06676, 42.33816 ] } },
{ "type": "Feature", "properties": { "name": "La Lucca", "population": "561", "province": "FR", "state": "IT" }, "geometry": { "type": "Point", "coordinates": [ 13.50762, 41.62298 ] } },
{ "type": "Feature", "properties": { "name": "Ridotti", "population": "560", "province": "AQ", "state": "IT" }, "geometry": { "type": "Point", "coordinates": [ 13.60643, 41.78741 ] } },
{ "type": "Feature", "properties": { "name": "Porrino", "population": "559", "province": "FR", "state": "IT" }, "geometry": { "type": "Point", "coordinates": [ 13.51147, 41.67346 ] } },
{ "type": "Feature", "properties": { "name": "La Vittoria", "population": "548", "province": "FR", "state": "IT" }, "geometry": { "type": "Point", "coordinates": [ 13.42559, 41.67248 ] } },
{ "type": "Feature", "properties": { "name": "Marane", "population": "532", "province": "AQ", "state": "IT" }, "geometry": { "type": "Point", "coordinates": [ 13.94766, 42.06379 ] } },
{ "type": "Feature", "properties": { "name": "San Cipriano", "population": "522", "province": "AQ", "state": "IT" }, "geometry": { "type": "Point", "coordinates": [ 13.41053, 42.33447 ] } },
{ "type": "Feature", "properties": { "name": "Santa Francesca", "population": "514", "province": "FR", "state": "IT" }, "geometry": { "type": "Point", "coordinates": [ 13.4525, 41.71782 ] } },
{ "type": "Feature", "properties": { "name": "Pitocco", "population": "513", "province": "FR", "state": "IT" }, "geometry": { "type": "Point", "coordinates": [ 13.31667, 41.77472 ] } },
{ "type": "Feature", "properties": { "name": "Girate", "population": "508", "province": "FR", "state": "IT" }, "geometry": { "type": "Point", "coordinates": [ 13.53814, 41.63517 ] } },
{ "type": "Feature", "properties": { "name": "Atina Inferiore", "population": "1426", "province": "FR", "state": "IT" }, "geometry": { "type": "Point", "coordinates": [ 13.79258, 41.62705 ] } },
{ "type": "Feature", "properties": { "name": "Progetto Case Coppito 3", "population": "1294", "province": "AQ", "state": "IT" }, "geometry": { "type": "Point", "coordinates": [ 13.31973, 42.36981 ] } },
{ "type": "Feature", "properties": { "name": "Progetto Case Sassa Nsi", "population": "1180", "province": "AQ", "state": "IT" }, "geometry": { "type": "Point", "coordinates": [ 13.31509, 42.3656 ] } },
{ "type": "Feature", "properties": { "name": "Canistro Inferiore", "population": "726", "province": "AQ", "state": "IT" }, "geometry": { "type": "Point", "coordinates": [ 13.41194, 41.94101 ] } },
{ "type": "Feature", "properties": { "name": "Aielli Stazione", "population": "660", "province": "AQ", "state": "IT" }, "geometry": { "type": "Point", "coordinates": [ 13.58488, 42.06395 ] } },
{ "type": "Feature", "properties": { "name": "Nucleo Industriale di Bazzano", "population": "2619", "province": "AQ", "state": "IT" }, "geometry": { "type": "Point", "coordinates": [ 13.46755, 42.33623 ] } }
]
}
