{
"type": "FeatureCollection",
"name": "Municipalities",
"features": [
{ "type": "Feature", "properties": { "name": "Zafferana Etnea", "population": "9214", "province": "CT", "state": "IT" }, "geometry": { "type": "Point", "coordinates": [ 15.10432, 37.67895 ] } },
{ "type": "Feature", "properties": { "name": "Vizzini", "population": "5967", "province": "CT", "state": "IT" }, "geometry": { "type": "Point", "coordinates": [ 14.75712, 37.16188 ] } },
{ "type": "Feature", "properties": { "name": "Villasmundo", "population": "3008", "province": "SR", "state": "IT" }, "geometry": { "type": "Point", "coordinates": [ 15.09087, 37.25132 ] } },
{ "type": "Feature", "properties": { "name": "Viagrande", "population": "6880", "province": "CT", "state": "IT" }, "geometry": { "type": "Point", "coordinates": [ 15.09794, 37.61032 ] } },
{ "type": "Feature", "properties": { "name": "Trecastagni", "population": "10135", "province": "CT", "state": "IT" }, "geometry": { "type": "Point", "coordinates": [ 15.07796, 37.61543 ] } },
{ "type": "Feature", "properties": { "name": "Sortino", "population": "8532", "province": "SR", "state": "IT" }, "geometry": { "type": "Point", "coordinates": [ 15.02998, 37.15881 ] } },
{ "type": "Feature", "properties": { "name": "Solarino", "population": "7220", "province": "SR", "state": "IT" }, "geometry": { "type": "Point", "coordinates": [ 15.11988, 37.10136 ] } },
{ "type": "Feature", "properties": { "name": "Siracusa", "population": "97472", "province": "SR", "state": "IT" }, "geometry": { "type": "Point", "coordinates": [ 15.28664, 37.07542 ] } },
{ "type": "Feature", "properties": { "name": "Scordia", "population": "16645", "province": "CT", "state": "IT" }, "geometry": { "type": "Point", "coordinates": [ 14.84058, 37.29548 ] } },
{ "type": "Feature", "properties": { "name": "Santa Venerina", "population": "5000", "province": "CT", "state": "IT" }, "geometry": { "type": "Point", "coordinates": [ 15.1388, 37.69103 ] } },
{ "type": "Feature", "properties": { "name": "Santa Maria di Licodia", "population": "6810", "province": "CT", "state": "IT" }, "geometry": { "type": "Point", "coordinates": [ 14.89337, 37.61684 ] } },
{ "type": "Feature", "properties": { "name": "Sant'Alfio", "population": "1512", "province": "CT", "state": "IT" }, "geometry": { "type": "Point", "coordinates": [ 15.13952, 37.74393 ] } },
{ "type": "Feature", "properties": { "name": "Santa Flavia", "population": "9365", "province": "PA", "state": "IT" }, "geometry": { "type": "Point", "coordinates": [ 13.5334, 38.10448 ] } },
{ "type": "Feature", "properties": { "name": "San Gregorio di Catania", "population": "5100", "province": "CT", "state": "IT" }, "geometry": { "type": "Point", "coordinates": [ 15.1112, 37.56764 ] } },
{ "type": "Feature", "properties": { "name": "San Giovanni la Punta", "population": "22046", "province": "CT", "state": "IT" }, "geometry": { "type": "Point", "coordinates": [ 15.09371, 37.5769 ] } },
{ "type": "Feature", "properties": { "name": "Rosolini", "population": "19721", "province": "SR", "state": "IT" }, "geometry": { "type": "Point", "coordinates": [ 14.95132, 36.82145 ] } },
{ "type": "Feature", "properties": { "name": "Riposto", "population": "11719", "province": "CT", "state": "IT" }, "geometry": { "type": "Point", "coordinates": [ 15.20576, 37.73183 ] } },
{ "type": "Feature", "properties": { "name": "Ragusa", "population": "61380", "province": "RG", "state": "IT" }, "geometry": { "type": "Point", "coordinates": [ 14.72443, 36.92574 ] } },
{ "type": "Feature", "properties": { "name": "Priolo Gargallo", "population": "11724", "province": "SR", "state": "IT" }, "geometry": { "type": "Point", "coordinates": [ 15.18248, 37.15512 ] } },
{ "type": "Feature", "properties": { "name": "Piedimonte Etneo", "population": "3381", "province": "CT", "state": "IT" }, "geometry": { "type": "Point", "coordinates": [ 15.17516, 37.80677 ] } },
{ "type": "Feature", "properties": { "name": "Pedara", "population": "12089", "province": "CT", "state": "IT" }, "geometry": { "type": "Point", "coordinates": [ 15.05672, 37.62386 ] } },
{ "type": "Feature", "properties": { "name": "Pedagaggi", "population": "2114", "province": "SR", "state": "IT" }, "geometry": { "type": "Point", "coordinates": [ 14.93654, 37.19182 ] } },
{ "type": "Feature", "properties": { "name": "Paternò", "population": "46030", "province": "CT", "state": "IT" }, "geometry": { "type": "Point", "coordinates": [ 14.90254, 37.56675 ] } },
{ "type": "Feature", "properties": { "name": "Palazzolo Acreide", "population": "8357", "province": "SR", "state": "IT" }, "geometry": { "type": "Point", "coordinates": [ 14.90593, 37.06261 ] } },
{ "type": "Feature", "properties": { "name": "Palagonia", "population": "16227", "province": "CT", "state": "IT" }, "geometry": { "type": "Point", "coordinates": [ 14.74474, 37.32955 ] } },
{ "type": "Feature", "properties": { "name": "Nunziata", "population": "1606", "province": "CT", "state": "IT" }, "geometry": { "type": "Point", "coordinates": [ 15.17058, 37.75858 ] } },
{ "type": "Feature", "properties": { "name": "Lido di Noto", "population": "741", "province": "SR", "state": "IT" }, "geometry": { "type": "Point", "coordinates": [ 15.11445, 36.85907 ] } },
{ "type": "Feature", "properties": { "name": "Noto", "population": "18421", "province": "SR", "state": "IT" }, "geometry": { "type": "Point", "coordinates": [ 15.06977, 36.89244 ] } },
{ "type": "Feature", "properties": { "name": "Nicolosi", "population": "7061", "province": "CT", "state": "IT" }, "geometry": { "type": "Point", "coordinates": [ 15.02785, 37.62148 ] } },
{ "type": "Feature", "properties": { "name": "Motta Sant'Anastasia", "population": "9025", "province": "CT", "state": "IT" }, "geometry": { "type": "Point", "coordinates": [ 14.96628, 37.51205 ] } },
{ "type": "Feature", "properties": { "name": "Monterosso Almo", "population": "2984", "province": "RG", "state": "IT" }, "geometry": { "type": "Point", "coordinates": [ 14.76498, 37.08884 ] } },
{ "type": "Feature", "properties": { "name": "Modica", "population": "41126", "province": "RG", "state": "IT" }, "geometry": { "type": "Point", "coordinates": [ 14.75966, 36.85868 ] } },
{ "type": "Feature", "properties": { "name": "Misterbianco", "population": "45542", "province": "CT", "state": "IT" }, "geometry": { "type": "Point", "coordinates": [ 15.00913, 37.51803 ] } },
{ "type": "Feature", "properties": { "name": "Mineo", "population": "4567", "province": "CT", "state": "IT" }, "geometry": { "type": "Point", "coordinates": [ 14.69381, 37.26494 ] } },
{ "type": "Feature", "properties": { "name": "Milo", "population": "619", "province": "CT", "state": "IT" }, "geometry": { "type": "Point", "coordinates": [ 15.11554, 37.7245 ] } },
{ "type": "Feature", "properties": { "name": "Militello in Val di Catania", "population": "7798", "province": "CT", "state": "IT" }, "geometry": { "type": "Point", "coordinates": [ 14.79342, 37.27594 ] } },
{ "type": "Feature", "properties": { "name": "Melilli", "population": "6593", "province": "SR", "state": "IT" }, "geometry": { "type": "Point", "coordinates": [ 15.1302, 37.17821 ] } },
{ "type": "Feature", "properties": { "name": "Mascalucia", "population": "29910", "province": "CT", "state": "IT" }, "geometry": { "type": "Point", "coordinates": [ 15.04964, 37.57465 ] } },
{ "type": "Feature", "properties": { "name": "Mascali", "population": "9377", "province": "CT", "state": "IT" }, "geometry": { "type": "Point", "coordinates": [ 15.19662, 37.75794 ] } },
{ "type": "Feature", "properties": { "name": "Linguaglossa", "population": "5234", "province": "CT", "state": "IT" }, "geometry": { "type": "Point", "coordinates": [ 15.13774, 37.84243 ] } },
{ "type": "Feature", "properties": { "name": "Linera", "population": "2757", "province": "CT", "state": "IT" }, "geometry": { "type": "Point", "coordinates": [ 15.13653, 37.6638 ] } },
{ "type": "Feature", "properties": { "name": "Licodia Eubea", "population": "2921", "province": "CT", "state": "IT" }, "geometry": { "type": "Point", "coordinates": [ 14.70555, 37.15674 ] } },
{ "type": "Feature", "properties": { "name": "Lentini", "population": "24102", "province": "SR", "state": "IT" }, "geometry": { "type": "Point", "coordinates": [ 14.99737, 37.28556 ] } },
{ "type": "Feature", "properties": { "name": "Ispica", "population": "13725", "province": "RG", "state": "IT" }, "geometry": { "type": "Point", "coordinates": [ 14.9053, 36.78622 ] } },
{ "type": "Feature", "properties": { "name": "Grammichele", "population": "12844", "province": "CT", "state": "IT" }, "geometry": { "type": "Point", "coordinates": [ 14.63311, 37.21326 ] } },
{ "type": "Feature", "properties": { "name": "Giarre", "population": "24138", "province": "CT", "state": "IT" }, "geometry": { "type": "Point", "coordinates": [ 15.18165, 37.7244 ] } },
{ "type": "Feature", "properties": { "name": "Giarratana", "population": "2932", "province": "RG", "state": "IT" }, "geometry": { "type": "Point", "coordinates": [ 14.79454, 37.04741 ] } },
{ "type": "Feature", "properties": { "name": "Giardini-Naxos", "population": "6802", "province": "ME", "state": "IT" }, "geometry": { "type": "Point", "coordinates": [ 15.26713, 37.82755 ] } },
{ "type": "Feature", "properties": { "name": "Francofonte", "population": "12635", "province": "SR", "state": "IT" }, "geometry": { "type": "Point", "coordinates": [ 14.87488, 37.22477 ] } },
{ "type": "Feature", "properties": { "name": "Floridia", "population": "22089", "province": "SR", "state": "IT" }, "geometry": { "type": "Point", "coordinates": [ 15.15332, 37.08343 ] } },
{ "type": "Feature", "properties": { "name": "Fiumefreddo Sicilia", "population": "9483", "province": "CT", "state": "IT" }, "geometry": { "type": "Point", "coordinates": [ 15.20919, 37.79146 ] } },
{ "type": "Feature", "properties": { "name": "Ferla", "population": "2488", "province": "SR", "state": "IT" }, "geometry": { "type": "Point", "coordinates": [ 14.93881, 37.11978 ] } },
{ "type": "Feature", "properties": { "name": "Chiaramonte Gulfi", "population": "4676", "province": "RG", "state": "IT" }, "geometry": { "type": "Point", "coordinates": [ 14.70302, 37.0305 ] } },
{ "type": "Feature", "properties": { "name": "Centuripe", "population": "4910", "province": "EN", "state": "IT" }, "geometry": { "type": "Point", "coordinates": [ 14.74049, 37.62336 ] } },
{ "type": "Feature", "properties": { "name": "Catania", "population": "290927", "province": "CT", "state": "IT" }, "geometry": { "type": "Point", "coordinates": [ 15.07041, 37.49223 ] } },
{ "type": "Feature", "properties": { "name": "Cassibile", "population": "4573", "province": "SR", "state": "IT" }, "geometry": { "type": "Point", "coordinates": [ 15.20061, 36.97862 ] } },
{ "type": "Feature", "properties": { "name": "Cassaro", "population": "782", "province": "SR", "state": "IT" }, "geometry": { "type": "Point", "coordinates": [ 14.94697, 37.10571 ] } },
{ "type": "Feature", "properties": { "name": "Carlentini", "population": "14900", "province": "SR", "state": "IT" }, "geometry": { "type": "Point", "coordinates": [ 15.0102, 37.28071 ] } },
{ "type": "Feature", "properties": { "name": "Canicattini Bagni", "population": "6893", "province": "SR", "state": "IT" }, "geometry": { "type": "Point", "coordinates": [ 15.06388, 37.03171 ] } },
{ "type": "Feature", "properties": { "name": "Calatabiano", "population": "4102", "province": "CT", "state": "IT" }, "geometry": { "type": "Point", "coordinates": [ 15.23069, 37.82049 ] } },
{ "type": "Feature", "properties": { "name": "Buscemi", "population": "1063", "province": "SR", "state": "IT" }, "geometry": { "type": "Point", "coordinates": [ 14.88499, 37.08604 ] } },
{ "type": "Feature", "properties": { "name": "Buccheri", "population": "1860", "province": "SR", "state": "IT" }, "geometry": { "type": "Point", "coordinates": [ 14.85222, 37.12494 ] } },
{ "type": "Feature", "properties": { "name": "Brucoli", "population": "1098", "province": "SR", "state": "IT" }, "geometry": { "type": "Point", "coordinates": [ 15.18836, 37.28191 ] } },
{ "type": "Feature", "properties": { "name": "Biancavilla", "population": "23188", "province": "CT", "state": "IT" }, "geometry": { "type": "Point", "coordinates": [ 14.86685, 37.64442 ] } },
{ "type": "Feature", "properties": { "name": "Belvedere", "population": "6263", "province": "SR", "state": "IT" }, "geometry": { "type": "Point", "coordinates": [ 15.21314, 37.08839 ] } },
{ "type": "Feature", "properties": { "name": "Belpasso", "population": "16319", "province": "CT", "state": "IT" }, "geometry": { "type": "Point", "coordinates": [ 14.97985, 37.59192 ] } },
{ "type": "Feature", "properties": { "name": "Avola", "population": "28666", "province": "SR", "state": "IT" }, "geometry": { "type": "Point", "coordinates": [ 15.13937, 36.9084 ] } },
{ "type": "Feature", "properties": { "name": "Augusta", "population": "30723", "province": "SR", "state": "IT" }, "geometry": { "type": "Point", "coordinates": [ 15.22121, 37.24065 ] } },
{ "type": "Feature", "properties": { "name": "Adrano", "population": "34446", "province": "CT", "state": "IT" }, "geometry": { "type": "Point", "coordinates": [ 14.83283, 37.66358 ] } },
{ "type": "Feature", "properties": { "name": "Aci Sant'Antonio", "population": "10373", "province": "CT", "state": "IT" }, "geometry": { "type": "Point", "coordinates": [ 15.12294, 37.60499 ] } },
{ "type": "Feature", "properties": { "name": "Acireale", "population": "49477", "province": "CT", "state": "IT" }, "geometry": { "type": "Point", "coordinates": [ 15.16577, 37.60886 ] } },
{ "type": "Feature", "properties": { "name": "Aci Catena", "population": "24663", "province": "CT", "state": "IT" }, "geometry": { "type": "Point", "coordinates": [ 15.14165, 37.60614 ] } },
{ "type": "Feature", "properties": { "name": "Aci Castello", "population": "17588", "province": "CT", "state": "IT" }, "geometry": { "type": "Point", "coordinates": [ 15.14535, 37.55564 ] } },
{ "type": "Feature", "properties": { "name": "Aci Bonaccorsi", "population": "3143", "province": "CT", "state": "IT" }, "geometry": { "type": "Point", "coordinates": [ 15.10724, 37.5964 ] } },
{ "type": "Feature", "properties": { "name": "Tremestieri Etneo", "population": "13657", "province": "CT", "state": "IT" }, "geometry": { "type": "Point", "coordinates": [ 15.07863, 37.56494 ] } },
{ "type": "Feature", "properties": { "name": "Gravina di Catania", "population": "26524", "province": "CT", "state": "IT" }, "geometry": { "type": "Point", "coordinates": [ 15.06292, 37.56085 ] } },
{ "type": "Feature", "properties": { "name": "Sant'Agata Li Battiati", "population": "9828", "province": "CT", "state": "IT" }, "geometry": { "type": "Point", "coordinates": [ 15.07999, 37.55745 ] } },
{ "type": "Feature", "properties": { "name": "Camporotondo Etneo", "population": "2831", "province": "CT", "state": "IT" }, "geometry": { "type": "Point", "coordinates": [ 15.00319, 37.56565 ] } },
{ "type": "Feature", "properties": { "name": "San Pietro Clarenza", "population": "6886", "province": "CT", "state": "IT" }, "geometry": { "type": "Point", "coordinates": [ 15.02289, 37.56885 ] } },
{ "type": "Feature", "properties": { "name": "Valverde", "population": "4913", "province": "CT", "state": "IT" }, "geometry": { "type": "Point", "coordinates": [ 15.12419, 37.57695 ] } },
{ "type": "Feature", "properties": { "name": "Ragalna", "population": "3302", "province": "CT", "state": "IT" }, "geometry": { "type": "Point", "coordinates": [ 14.94698, 37.63455 ] } },
{ "type": "Feature", "properties": { "name": "Aci Trezza", "population": "5000", "province": "CT", "state": "IT" }, "geometry": { "type": "Point", "coordinates": [ 15.16136, 37.56385 ] } },
{ "type": "Feature", "properties": { "name": "Fontane Bianche", "population": "889", "province": "SR", "state": "IT" }, "geometry": { "type": "Point", "coordinates": [ 15.20929, 36.96628 ] } },
{ "type": "Feature", "properties": { "name": "Vambolieri", "population": "1546", "province": "CT", "state": "IT" }, "geometry": { "type": "Point", "coordinates": [ 15.16019, 37.57417 ] } },
{ "type": "Feature", "properties": { "name": "Acitrezza", "population": "5000", "province": "CT", "state": "IT" }, "geometry": { "type": "Point", "coordinates": [ 15.1599, 37.5596 ] } },
{ "type": "Feature", "properties": { "name": "Carruba", "population": "1099", "province": "CT", "state": "IT" }, "geometry": { "type": "Point", "coordinates": [ 15.18815, 37.69062 ] } },
{ "type": "Feature", "properties": { "name": "Sant'Anna", "population": "558", "province": "CT", "state": "IT" }, "geometry": { "type": "Point", "coordinates": [ 15.20396, 37.74459 ] } },
{ "type": "Feature", "properties": { "name": "Canalicchio", "population": "7329", "province": "CT", "state": "IT" }, "geometry": { "type": "Point", "coordinates": [ 15.09645, 37.54097 ] } },
{ "type": "Feature", "properties": { "name": "Chianchitta-Trappitello", "population": "4029", "province": "ME", "state": "IT" }, "geometry": { "type": "Point", "coordinates": [ 15.25077, 37.82984 ] } },
{ "type": "Feature", "properties": { "name": "Carrubazza-Motta", "population": "3170", "province": "CT", "state": "IT" }, "geometry": { "type": "Point", "coordinates": [ 15.10819, 37.55323 ] } },
{ "type": "Feature", "properties": { "name": "Cerza", "population": "3124", "province": "CT", "state": "IT" }, "geometry": { "type": "Point", "coordinates": [ 15.1051, 37.54297 ] } },
{ "type": "Feature", "properties": { "name": "Maugeri", "population": "2285", "province": "CT", "state": "IT" }, "geometry": { "type": "Point", "coordinates": [ 15.11785, 37.58608 ] } },
{ "type": "Feature", "properties": { "name": "Città Giardino", "population": "2082", "province": "SR", "state": "IT" }, "geometry": { "type": "Point", "coordinates": [ 15.21172, 37.10444 ] } },
{ "type": "Feature", "properties": { "name": "Villaggio del Pino-Le Ginestre", "population": "1980", "province": "CT", "state": "IT" }, "geometry": { "type": "Point", "coordinates": [ 15.00377, 37.58292 ] } },
{ "type": "Feature", "properties": { "name": "San Giovanni", "population": "1789", "province": "CT", "state": "IT" }, "geometry": { "type": "Point", "coordinates": [ 15.15887, 37.73538 ] } },
{ "type": "Feature", "properties": { "name": "Campanella-Gianforma", "population": "1750", "province": "RG", "state": "IT" }, "geometry": { "type": "Point", "coordinates": [ 14.8336, 36.9263 ] } },
{ "type": "Feature", "properties": { "name": "Palazzolo", "population": "1608", "province": "CT", "state": "IT" }, "geometry": { "type": "Point", "coordinates": [ 14.92987, 37.56224 ] } },
{ "type": "Feature", "properties": { "name": "Belvedere-Piano Tavola", "population": "1574", "province": "CT", "state": "IT" }, "geometry": { "type": "Point", "coordinates": [ 14.98786, 37.52955 ] } },
{ "type": "Feature", "properties": { "name": "Lavinaio-Monterosso", "population": "1398", "province": "CT", "state": "IT" }, "geometry": { "type": "Point", "coordinates": [ 15.10462, 37.64097 ] } },
{ "type": "Feature", "properties": { "name": "Carrozziere", "population": "1394", "province": "SR", "state": "IT" }, "geometry": { "type": "Point", "coordinates": [ 15.27195, 37.0376 ] } },
{ "type": "Feature", "properties": { "name": "Pennisi", "population": "1143", "province": "CT", "state": "IT" }, "geometry": { "type": "Point", "coordinates": [ 15.12385, 37.64945 ] } },
{ "type": "Feature", "properties": { "name": "Pasteria-Lapide", "population": "1081", "province": "CT", "state": "IT" }, "geometry": { "type": "Point", "coordinates": [ 15.22818, 37.81012 ] } },
{ "type": "Feature", "properties": { "name": "Vaccarizzo-Delfino", "population": "882", "province": "CT", "state": "IT" }, "geometry": { "type": "Point", "coordinates": [ 15.08096, 37.37325 ] } },
{ "type": "Feature", "properties": { "name": "Monterosso", "population": "731", "province": "CT", "state": "IT" }, "geometry": { "type": "Point", "coordinates": [ 15.09128, 37.64282 ] } },
{ "type": "Feature", "properties": { "name": "Gallina", "population": "700", "province": "SR", "state": "IT" }, "geometry": { "type": "Point", "coordinates": [ 15.17408, 36.93462 ] } },
{ "type": "Feature", "properties": { "name": "Villaggio Gulfi", "population": "686", "province": "RG", "state": "IT" }, "geometry": { "type": "Point", "coordinates": [ 14.68221, 37.03769 ] } },
{ "type": "Feature", "properties": { "name": "Arenella", "population": "664", "province": "SR", "state": "IT" }, "geometry": { "type": "Point", "coordinates": [ 15.26195, 37.00325 ] } },
{ "type": "Feature", "properties": { "name": "Roccazzo", "population": "640", "province": "RG", "state": "IT" }, "geometry": { "type": "Point", "coordinates": [ 14.62948, 37.05191 ] } },
{ "type": "Feature", "properties": { "name": "Solicchiata", "population": "569", "province": "CT", "state": "IT" }, "geometry": { "type": "Point", "coordinates": [ 15.06487, 37.86419 ] } },
{ "type": "Feature", "properties": { "name": "Santa Venera-Portosalvo", "population": "538", "province": "CT", "state": "IT" }, "geometry": { "type": "Point", "coordinates": [ 15.17223, 37.77897 ] } },
{ "type": "Feature", "properties": { "name": "Fanusa", "population": "524", "province": "SR", "state": "IT" }, "geometry": { "type": "Point", "coordinates": [ 15.28007, 37.02252 ] } },
{ "type": "Feature", "properties": { "name": "Carlentini Nord", "population": "944", "province": "SR", "state": "IT" }, "geometry": { "type": "Point", "coordinates": [ 15.00876, 37.29342 ] } },
{ "type": "Feature", "properties": { "name": "Chianchitta-Pallio", "population": "2267", "province": "ME", "state": "IT" }, "geometry": { "type": "Point", "coordinates": [ 15.25317, 37.82108 ] } },
{ "type": "Feature", "properties": { "name": "Santa Maria la Stella", "population": "4467", "province": "CT", "state": "IT" }, "geometry": { "type": "Point", "coordinates": [ 15.12071, 37.62349 ] } }
]
}
