{
"type": "FeatureCollection",
"name": "Municipalities",
"features": [
{ "type": "Feature", "properties": { "name": "Zumpano", "population": "343", "province": "CS", "state": "IT" }, "geometry": { "type": "Point", "coordinates": [ 16.29269, 39.31053 ] } },
{ "type": "Feature", "properties": { "name": "Villapiana", "population": "1480", "province": "CS", "state": "IT" }, "geometry": { "type": "Point", "coordinates": [ 16.45528, 39.84573 ] } },
{ "type": "Feature", "properties": { "name": "Verzino", "population": "1803", "province": "KR", "state": "IT" }, "geometry": { "type": "Point", "coordinates": [ 16.85613, 39.31325 ] } },
{ "type": "Feature", "properties": { "name": "Vaccarizzo Albanese", "population": "1030", "province": "CS", "state": "IT" }, "geometry": { "type": "Point", "coordinates": [ 16.43289, 39.5854 ] } },
{ "type": "Feature", "properties": { "name": "Trenta", "population": "900", "province": "CS", "state": "IT" }, "geometry": { "type": "Point", "coordinates": [ 16.32093, 39.28541 ] } },
{ "type": "Feature", "properties": { "name": "Campora San Giovanni", "population": "3002", "province": "CS", "state": "IT" }, "geometry": { "type": "Point", "coordinates": [ 16.09566, 39.06798 ] } },
{ "type": "Feature", "properties": { "name": "Torano Castello", "population": "1661", "province": "CS", "state": "IT" }, "geometry": { "type": "Point", "coordinates": [ 16.16103, 39.50396 ] } },
{ "type": "Feature", "properties": { "name": "Terranova da Sibari", "population": "4887", "province": "CS", "state": "IT" }, "geometry": { "type": "Point", "coordinates": [ 16.33979, 39.65548 ] } },
{ "type": "Feature", "properties": { "name": "Taverna", "population": "2446", "province": "CZ", "state": "IT" }, "geometry": { "type": "Point", "coordinates": [ 16.58081, 39.022 ] } },
{ "type": "Feature", "properties": { "name": "Tarsia", "population": "1373", "province": "CS", "state": "IT" }, "geometry": { "type": "Point", "coordinates": [ 16.27337, 39.62311 ] } },
{ "type": "Feature", "properties": { "name": "Surdo", "population": "1659", "province": "CS", "state": "IT" }, "geometry": { "type": "Point", "coordinates": [ 16.20139, 39.32752 ] } },
{ "type": "Feature", "properties": { "name": "Spezzano Piccolo", "population": "2013", "province": "CS", "state": "IT" }, "geometry": { "type": "Point", "coordinates": [ 16.34211, 39.2901 ] } },
{ "type": "Feature", "properties": { "name": "Spezzano della Sila", "population": "3419", "province": "CS", "state": "IT" }, "geometry": { "type": "Point", "coordinates": [ 16.33923, 39.30033 ] } },
{ "type": "Feature", "properties": { "name": "Spezzano Albanese", "population": "6525", "province": "CS", "state": "IT" }, "geometry": { "type": "Point", "coordinates": [ 16.30939, 39.66854 ] } },
{ "type": "Feature", "properties": { "name": "Soveria Mannelli", "population": "2328", "province": "CZ", "state": "IT" }, "geometry": { "type": "Point", "coordinates": [ 16.37708, 39.07784 ] } },
{ "type": "Feature", "properties": { "name": "Sorbo San Basile", "population": "507", "province": "CZ", "state": "IT" }, "geometry": { "type": "Point", "coordinates": [ 16.5691, 39.01939 ] } },
{ "type": "Feature", "properties": { "name": "Sibari", "population": "2027", "province": "CS", "state": "IT" }, "geometry": { "type": "Point", "coordinates": [ 16.4551, 39.74733 ] } },
{ "type": "Feature", "properties": { "name": "Serrastretta", "population": "835", "province": "CZ", "state": "IT" }, "geometry": { "type": "Point", "coordinates": [ 16.4163, 39.01319 ] } },
{ "type": "Feature", "properties": { "name": "Serra Pedace", "population": "972", "province": "CS", "state": "IT" }, "geometry": { "type": "Point", "coordinates": [ 16.34557, 39.27898 ] } },
{ "type": "Feature", "properties": { "name": "Serra d'Aiello", "population": "450", "province": "CS", "state": "IT" }, "geometry": { "type": "Point", "coordinates": [ 16.12612, 39.09004 ] } },
{ "type": "Feature", "properties": { "name": "Scarcelli", "population": "1700", "province": "CS", "state": "IT" }, "geometry": { "type": "Point", "coordinates": [ 16.01667, 39.4 ] } },
{ "type": "Feature", "properties": { "name": "Savelli", "population": "1321", "province": "KR", "state": "IT" }, "geometry": { "type": "Point", "coordinates": [ 16.77642, 39.31278 ] } },
{ "type": "Feature", "properties": { "name": "Sartano", "population": "1633", "province": "CS", "state": "IT" }, "geometry": { "type": "Point", "coordinates": [ 16.17915, 39.51169 ] } },
{ "type": "Feature", "properties": { "name": "San Vincenzo la Costa", "population": "684", "province": "CS", "state": "IT" }, "geometry": { "type": "Point", "coordinates": [ 16.1511, 39.36544 ] } },
{ "type": "Feature", "properties": { "name": "Santo Stefano di Rogliano", "population": "1041", "province": "CS", "state": "IT" }, "geometry": { "type": "Point", "coordinates": [ 16.32079, 39.19223 ] } },
{ "type": "Feature", "properties": { "name": "Sant'Ippolito", "population": "706", "province": "CS", "state": "IT" }, "geometry": { "type": "Point", "coordinates": [ 16.29436, 39.26741 ] } },
{ "type": "Feature", "properties": { "name": "Santa Sofia d'Epiro", "population": "1255", "province": "CS", "state": "IT" }, "geometry": { "type": "Point", "coordinates": [ 16.32815, 39.54597 ] } },
{ "type": "Feature", "properties": { "name": "Santa Maria le Grotte", "population": "534", "province": "CS", "state": "IT" }, "geometry": { "type": "Point", "coordinates": [ 16.14212, 39.47705 ] } },
{ "type": "Feature", "properties": { "name": "Sant'Agata di Esaro", "population": "1120", "province": "CS", "state": "IT" }, "geometry": { "type": "Point", "coordinates": [ 15.98295, 39.62235 ] } },
{ "type": "Feature", "properties": { "name": "Santa Caterina Albanese", "population": "329", "province": "CS", "state": "IT" }, "geometry": { "type": "Point", "coordinates": [ 16.07039, 39.5859 ] } },
{ "type": "Feature", "properties": { "name": "San Sosti", "population": "1269", "province": "CS", "state": "IT" }, "geometry": { "type": "Point", "coordinates": [ 16.02958, 39.65879 ] } },
{ "type": "Feature", "properties": { "name": "San Pietro in Guarano", "population": "1355", "province": "CS", "state": "IT" }, "geometry": { "type": "Point", "coordinates": [ 16.31304, 39.34164 ] } },
{ "type": "Feature", "properties": { "name": "San Pietro in Amantea", "population": "206", "province": "CS", "state": "IT" }, "geometry": { "type": "Point", "coordinates": [ 16.11243, 39.13658 ] } },
{ "type": "Feature", "properties": { "name": "San Pietro Apostolo", "population": "1463", "province": "CZ", "state": "IT" }, "geometry": { "type": "Point", "coordinates": [ 16.46783, 39.00413 ] } },
{ "type": "Feature", "properties": { "name": "San Martino di Finita", "population": "453", "province": "CS", "state": "IT" }, "geometry": { "type": "Point", "coordinates": [ 16.10968, 39.48988 ] } },
{ "type": "Feature", "properties": { "name": "San Marco Argentano", "population": "2516", "province": "CS", "state": "IT" }, "geometry": { "type": "Point", "coordinates": [ 16.12452, 39.55725 ] } },
{ "type": "Feature", "properties": { "name": "San Mango d'Aquino", "population": "1447", "province": "CZ", "state": "IT" }, "geometry": { "type": "Point", "coordinates": [ 16.19224, 39.06036 ] } },
{ "type": "Feature", "properties": { "name": "San Lucido", "population": "4194", "province": "CS", "state": "IT" }, "geometry": { "type": "Point", "coordinates": [ 16.05317, 39.31012 ] } },
{ "type": "Feature", "properties": { "name": "San Lorenzo del Vallo", "population": "2386", "province": "CS", "state": "IT" }, "geometry": { "type": "Point", "coordinates": [ 16.29866, 39.66739 ] } },
{ "type": "Feature", "properties": { "name": "San Giovanni in Fiore", "population": "17358", "province": "CS", "state": "IT" }, "geometry": { "type": "Point", "coordinates": [ 16.69699, 39.25446 ] } },
{ "type": "Feature", "properties": { "name": "San Giorgio Albanese", "population": "722", "province": "CS", "state": "IT" }, "geometry": { "type": "Point", "coordinates": [ 16.45349, 39.5823 ] } },
{ "type": "Feature", "properties": { "name": "San Giacomo", "population": "655", "province": "CS", "state": "IT" }, "geometry": { "type": "Point", "coordinates": [ 16.46424, 39.5254 ] } },
{ "type": "Feature", "properties": { "name": "San Giacomo", "population": "610", "province": "CS", "state": "IT" }, "geometry": { "type": "Point", "coordinates": [ 16.1137, 39.49962 ] } },
{ "type": "Feature", "properties": { "name": "San Fili", "population": "1275", "province": "CS", "state": "IT" }, "geometry": { "type": "Point", "coordinates": [ 16.14448, 39.33971 ] } },
{ "type": "Feature", "properties": { "name": "San Demetrio Corone", "population": "2281", "province": "CS", "state": "IT" }, "geometry": { "type": "Point", "coordinates": [ 16.36149, 39.5699 ] } },
{ "type": "Feature", "properties": { "name": "San Cosmo Albanese", "population": "581", "province": "CS", "state": "IT" }, "geometry": { "type": "Point", "coordinates": [ 16.41469, 39.58363 ] } },
{ "type": "Feature", "properties": { "name": "San Biase", "population": "600", "province": "CS", "state": "IT" }, "geometry": { "type": "Point", "coordinates": [ 16.09057, 39.22421 ] } },
{ "type": "Feature", "properties": { "name": "San Benedetto Ullano", "population": "684", "province": "CS", "state": "IT" }, "geometry": { "type": "Point", "coordinates": [ 16.12379, 39.4271 ] } },
{ "type": "Feature", "properties": { "name": "Rovito", "population": "2398", "province": "CS", "state": "IT" }, "geometry": { "type": "Point", "coordinates": [ 16.31746, 39.30636 ] } },
{ "type": "Feature", "properties": { "name": "Rota Greca", "population": "1143", "province": "CS", "state": "IT" }, "geometry": { "type": "Point", "coordinates": [ 16.11412, 39.46703 ] } },
{ "type": "Feature", "properties": { "name": "Rossano Stazione", "population": "23824", "province": "CS", "state": "IT" }, "geometry": { "type": "Point", "coordinates": [ 16.63485, 39.59855 ] } },
{ "type": "Feature", "properties": { "name": "Rossano", "population": "5194", "province": "CS", "state": "IT" }, "geometry": { "type": "Point", "coordinates": [ 16.63447, 39.57622 ] } },
{ "type": "Feature", "properties": { "name": "Rose", "population": "1235", "province": "CS", "state": "IT" }, "geometry": { "type": "Point", "coordinates": [ 16.29446, 39.39932 ] } },
{ "type": "Feature", "properties": { "name": "Rogliano", "population": "4648", "province": "CS", "state": "IT" }, "geometry": { "type": "Point", "coordinates": [ 16.31709, 39.17841 ] } },
{ "type": "Feature", "properties": { "name": "Roggiano Gravina", "population": "5693", "province": "CS", "state": "IT" }, "geometry": { "type": "Point", "coordinates": [ 16.16173, 39.61786 ] } },
{ "type": "Feature", "properties": { "name": "Rende", "population": "1404", "province": "CS", "state": "IT" }, "geometry": { "type": "Point", "coordinates": [ 16.18041, 39.33154 ] } },
{ "type": "Feature", "properties": { "name": "Quattromiglia", "population": "22889", "province": "CS", "state": "IT" }, "geometry": { "type": "Point", "coordinates": [ 16.23802, 39.34474 ] } },
{ "type": "Feature", "properties": { "name": "Pietrapaola", "population": "316", "province": "CS", "state": "IT" }, "geometry": { "type": "Point", "coordinates": [ 16.81597, 39.48701 ] } },
{ "type": "Feature", "properties": { "name": "Pietrafitta", "population": "1377", "province": "CS", "state": "IT" }, "geometry": { "type": "Point", "coordinates": [ 16.3394, 39.26103 ] } },
{ "type": "Feature", "properties": { "name": "Piane Crati", "population": "1242", "province": "CS", "state": "IT" }, "geometry": { "type": "Point", "coordinates": [ 16.32313, 39.23472 ] } },
{ "type": "Feature", "properties": { "name": "Petilia Policastro", "population": "5704", "province": "KR", "state": "IT" }, "geometry": { "type": "Point", "coordinates": [ 16.78167, 39.11293 ] } },
{ "type": "Feature", "properties": { "name": "Pedivigliano", "population": "432", "province": "CS", "state": "IT" }, "geometry": { "type": "Point", "coordinates": [ 16.30486, 39.11034 ] } },
{ "type": "Feature", "properties": { "name": "Pedace-Perito", "population": "1915", "province": "CS", "state": "IT" }, "geometry": { "type": "Point", "coordinates": [ 16.33639, 39.27639 ] } },
{ "type": "Feature", "properties": { "name": "Paterno Calabro", "population": "778", "province": "CS", "state": "IT" }, "geometry": { "type": "Point", "coordinates": [ 16.26489, 39.22849 ] } },
{ "type": "Feature", "properties": { "name": "Parenti", "population": "1546", "province": "CS", "state": "IT" }, "geometry": { "type": "Point", "coordinates": [ 16.4114, 39.16071 ] } },
{ "type": "Feature", "properties": { "name": "Paola", "population": "12649", "province": "CS", "state": "IT" }, "geometry": { "type": "Point", "coordinates": [ 16.03691, 39.36313 ] } },
{ "type": "Feature", "properties": { "name": "Panettieri", "population": "317", "province": "CS", "state": "IT" }, "geometry": { "type": "Point", "coordinates": [ 16.45375, 39.06007 ] } },
{ "type": "Feature", "properties": { "name": "Paludi", "population": "1134", "province": "CS", "state": "IT" }, "geometry": { "type": "Point", "coordinates": [ 16.67963, 39.52943 ] } },
{ "type": "Feature", "properties": { "name": "Pagliarelle", "population": "1277", "province": "KR", "state": "IT" }, "geometry": { "type": "Point", "coordinates": [ 16.75101, 39.14017 ] } },
{ "type": "Feature", "properties": { "name": "Nocera Terinese", "population": "1377", "province": "CZ", "state": "IT" }, "geometry": { "type": "Point", "coordinates": [ 16.16737, 39.03474 ] } },
{ "type": "Feature", "properties": { "name": "Motta Santa Lucia", "population": "706", "province": "CZ", "state": "IT" }, "geometry": { "type": "Point", "coordinates": [ 16.29313, 39.09122 ] } },
{ "type": "Feature", "properties": { "name": "Mottafollone", "population": "1072", "province": "CS", "state": "IT" }, "geometry": { "type": "Point", "coordinates": [ 16.06451, 39.6485 ] } },
{ "type": "Feature", "properties": { "name": "Montalto Uffugo", "population": "2751", "province": "CS", "state": "IT" }, "geometry": { "type": "Point", "coordinates": [ 16.15534, 39.40331 ] } },
{ "type": "Feature", "properties": { "name": "Mongrassano", "population": "563", "province": "CS", "state": "IT" }, "geometry": { "type": "Point", "coordinates": [ 16.11225, 39.52644 ] } },
{ "type": "Feature", "properties": { "name": "Mirto", "population": "8684", "province": "CS", "state": "IT" }, "geometry": { "type": "Point", "coordinates": [ 16.7739, 39.60069 ] } },
{ "type": "Feature", "properties": { "name": "Mendicino", "population": "1910", "province": "CS", "state": "IT" }, "geometry": { "type": "Point", "coordinates": [ 16.19452, 39.26282 ] } },
{ "type": "Feature", "properties": { "name": "Marzi", "population": "818", "province": "CS", "state": "IT" }, "geometry": { "type": "Point", "coordinates": [ 16.30705, 39.17063 ] } },
{ "type": "Feature", "properties": { "name": "Martirano Lombardo", "population": "628", "province": "CZ", "state": "IT" }, "geometry": { "type": "Point", "coordinates": [ 16.232, 39.07469 ] } },
{ "type": "Feature", "properties": { "name": "Martirano", "population": "591", "province": "CZ", "state": "IT" }, "geometry": { "type": "Point", "coordinates": [ 16.24829, 39.08119 ] } },
{ "type": "Feature", "properties": { "name": "Marina di Schiavonea", "population": "7743", "province": "CS", "state": "IT" }, "geometry": { "type": "Point", "coordinates": [ 16.53333, 39.65 ] } },
{ "type": "Feature", "properties": { "name": "Marina di Fuscaldo", "population": "3064", "province": "CS", "state": "IT" }, "geometry": { "type": "Point", "coordinates": [ 16.00694, 39.42418 ] } },
{ "type": "Feature", "properties": { "name": "Marano Principato", "population": "2639", "province": "CS", "state": "IT" }, "geometry": { "type": "Point", "coordinates": [ 16.1743, 39.29782 ] } },
{ "type": "Feature", "properties": { "name": "Marano Marchesato", "population": "3474", "province": "CS", "state": "IT" }, "geometry": { "type": "Point", "coordinates": [ 16.17354, 39.31274 ] } },
{ "type": "Feature", "properties": { "name": "Mangone", "population": "580", "province": "CS", "state": "IT" }, "geometry": { "type": "Point", "coordinates": [ 16.33262, 39.20437 ] } },
{ "type": "Feature", "properties": { "name": "Mandatoriccio", "population": "2182", "province": "CS", "state": "IT" }, "geometry": { "type": "Point", "coordinates": [ 16.8342, 39.46675 ] } },
{ "type": "Feature", "properties": { "name": "Malvito", "population": "426", "province": "CS", "state": "IT" }, "geometry": { "type": "Point", "coordinates": [ 16.05341, 39.60105 ] } },
{ "type": "Feature", "properties": { "name": "Malito", "population": "543", "province": "CS", "state": "IT" }, "geometry": { "type": "Point", "coordinates": [ 16.24677, 39.15775 ] } },
{ "type": "Feature", "properties": { "name": "Luzzi", "population": "2418", "province": "CS", "state": "IT" }, "geometry": { "type": "Point", "coordinates": [ 16.2873, 39.44799 ] } },
{ "type": "Feature", "properties": { "name": "Lungro", "population": "2473", "province": "CS", "state": "IT" }, "geometry": { "type": "Point", "coordinates": [ 16.12586, 39.73772 ] } },
{ "type": "Feature", "properties": { "name": "Longobucco", "population": "2501", "province": "CS", "state": "IT" }, "geometry": { "type": "Point", "coordinates": [ 16.6105, 39.4483 ] } },
{ "type": "Feature", "properties": { "name": "Longobardi", "population": "283", "province": "CS", "state": "IT" }, "geometry": { "type": "Point", "coordinates": [ 16.07464, 39.21059 ] } },
{ "type": "Feature", "properties": { "name": "Laurignano", "population": "2051", "province": "CS", "state": "IT" }, "geometry": { "type": "Point", "coordinates": [ 16.24232, 39.27915 ] } },
{ "type": "Feature", "properties": { "name": "Lattarico", "population": "1557", "province": "CS", "state": "IT" }, "geometry": { "type": "Point", "coordinates": [ 16.127, 39.45105 ] } },
{ "type": "Feature", "properties": { "name": "Lappano", "population": "423", "province": "CS", "state": "IT" }, "geometry": { "type": "Point", "coordinates": [ 16.31143, 39.31964 ] } },
{ "type": "Feature", "properties": { "name": "Lago", "population": "1250", "province": "CS", "state": "IT" }, "geometry": { "type": "Point", "coordinates": [ 16.14825, 39.17068 ] } },
{ "type": "Feature", "properties": { "name": "Aprigliano", "population": "1551", "province": "CS", "state": "IT" }, "geometry": { "type": "Point", "coordinates": [ 16.34046, 39.24228 ] } },
{ "type": "Feature", "properties": { "name": "Guardia Piemontese", "population": "410", "province": "CS", "state": "IT" }, "geometry": { "type": "Point", "coordinates": [ 15.9997, 39.46572 ] } },
{ "type": "Feature", "properties": { "name": "Grimaldi", "population": "1498", "province": "CS", "state": "IT" }, "geometry": { "type": "Point", "coordinates": [ 16.23511, 39.14111 ] } },
{ "type": "Feature", "properties": { "name": "Fuscaldo", "population": "1086", "province": "CS", "state": "IT" }, "geometry": { "type": "Point", "coordinates": [ 16.02839, 39.41421 ] } },
{ "type": "Feature", "properties": { "name": "Francavilla Marittima", "population": "2433", "province": "CS", "state": "IT" }, "geometry": { "type": "Point", "coordinates": [ 16.39499, 39.8161 ] } },
{ "type": "Feature", "properties": { "name": "Fiumefreddo Bruzio", "population": "521", "province": "CS", "state": "IT" }, "geometry": { "type": "Point", "coordinates": [ 16.07056, 39.23568 ] } },
{ "type": "Feature", "properties": { "name": "Firmo", "population": "1982", "province": "CS", "state": "IT" }, "geometry": { "type": "Point", "coordinates": [ 16.16344, 39.72208 ] } },
{ "type": "Feature", "properties": { "name": "Falconara Albanese", "population": "495", "province": "CS", "state": "IT" }, "geometry": { "type": "Point", "coordinates": [ 16.08819, 39.27524 ] } },
{ "type": "Feature", "properties": { "name": "Fagnano Castello", "population": "3439", "province": "CS", "state": "IT" }, "geometry": { "type": "Point", "coordinates": [ 16.06253, 39.5716 ] } },
{ "type": "Feature", "properties": { "name": "Doria", "population": "1173", "province": "CS", "state": "IT" }, "geometry": { "type": "Point", "coordinates": [ 16.35597, 39.73042 ] } },
{ "type": "Feature", "properties": { "name": "Donnici Superiore", "population": "558", "province": "CS", "state": "IT" }, "geometry": { "type": "Point", "coordinates": [ 16.30351, 39.2484 ] } },
{ "type": "Feature", "properties": { "name": "Donnici Inferiore", "population": "1178", "province": "CS", "state": "IT" }, "geometry": { "type": "Point", "coordinates": [ 16.29307, 39.2502 ] } },
{ "type": "Feature", "properties": { "name": "Domanico", "population": "590", "province": "CS", "state": "IT" }, "geometry": { "type": "Point", "coordinates": [ 16.20721, 39.21693 ] } },
{ "type": "Feature", "properties": { "name": "Destro", "population": "545", "province": "CS", "state": "IT" }, "geometry": { "type": "Point", "coordinates": [ 16.69415, 39.48921 ] } },
{ "type": "Feature", "properties": { "name": "Decollatura", "population": "2452", "province": "CZ", "state": "IT" }, "geometry": { "type": "Point", "coordinates": [ 16.35753, 39.04645 ] } },
{ "type": "Feature", "properties": { "name": "Crosia", "population": "505", "province": "CS", "state": "IT" }, "geometry": { "type": "Point", "coordinates": [ 16.77126, 39.56822 ] } },
{ "type": "Feature", "properties": { "name": "Cropalati", "population": "1097", "province": "CS", "state": "IT" }, "geometry": { "type": "Point", "coordinates": [ 16.72674, 39.51673 ] } },
{ "type": "Feature", "properties": { "name": "Cotronei", "population": "5121", "province": "KR", "state": "IT" }, "geometry": { "type": "Point", "coordinates": [ 16.77688, 39.15935 ] } },
{ "type": "Feature", "properties": { "name": "Cosenza", "population": "63852", "province": "CS", "state": "IT" }, "geometry": { "type": "Point", "coordinates": [ 16.25307, 39.2989 ] } },
{ "type": "Feature", "properties": { "name": "Corigliano Calabro", "population": "5402", "province": "CS", "state": "IT" }, "geometry": { "type": "Point", "coordinates": [ 16.51907, 39.59553 ] } },
{ "type": "Feature", "properties": { "name": "Colosimi", "population": "438", "province": "CS", "state": "IT" }, "geometry": { "type": "Point", "coordinates": [ 16.39909, 39.11911 ] } },
{ "type": "Feature", "properties": { "name": "Cleto", "population": "255", "province": "CS", "state": "IT" }, "geometry": { "type": "Point", "coordinates": [ 16.15839, 39.09019 ] } },
{ "type": "Feature", "properties": { "name": "Cicala", "population": "990", "province": "CZ", "state": "IT" }, "geometry": { "type": "Point", "coordinates": [ 16.4861, 39.02219 ] } },
{ "type": "Feature", "properties": { "name": "Cetraro", "population": "1555", "province": "CS", "state": "IT" }, "geometry": { "type": "Point", "coordinates": [ 15.94158, 39.5166 ] } },
{ "type": "Feature", "properties": { "name": "Cerzeto", "population": "655", "province": "CS", "state": "IT" }, "geometry": { "type": "Point", "coordinates": [ 16.11603, 39.50789 ] } },
{ "type": "Feature", "properties": { "name": "Cervicati", "population": "436", "province": "CS", "state": "IT" }, "geometry": { "type": "Point", "coordinates": [ 16.12682, 39.54237 ] } },
{ "type": "Feature", "properties": { "name": "Cerisano", "population": "2493", "province": "CS", "state": "IT" }, "geometry": { "type": "Point", "coordinates": [ 16.17654, 39.27715 ] } },
{ "type": "Feature", "properties": { "name": "Cerenzia", "population": "1188", "province": "KR", "state": "IT" }, "geometry": { "type": "Point", "coordinates": [ 16.78758, 39.24554 ] } },
{ "type": "Feature", "properties": { "name": "Cellara", "population": "371", "province": "CS", "state": "IT" }, "geometry": { "type": "Point", "coordinates": [ 16.3348, 39.21849 ] } },
{ "type": "Feature", "properties": { "name": "Celico", "population": "2218", "province": "CS", "state": "IT" }, "geometry": { "type": "Point", "coordinates": [ 16.33989, 39.31009 ] } },
{ "type": "Feature", "properties": { "name": "Castrolibero", "population": "369", "province": "CS", "state": "IT" }, "geometry": { "type": "Point", "coordinates": [ 16.19453, 39.31002 ] } },
{ "type": "Feature", "properties": { "name": "Castiglione Cosentino", "population": "1014", "province": "CS", "state": "IT" }, "geometry": { "type": "Point", "coordinates": [ 16.28821, 39.35271 ] } },
{ "type": "Feature", "properties": { "name": "Castagna", "population": "543", "province": "CZ", "state": "IT" }, "geometry": { "type": "Point", "coordinates": [ 16.43683, 39.05522 ] } },
{ "type": "Feature", "properties": { "name": "Cassano Allo Ionio", "population": "11560", "province": "CS", "state": "IT" }, "geometry": { "type": "Point", "coordinates": [ 16.32738, 39.78142 ] } },
{ "type": "Feature", "properties": { "name": "Casole Bruzio", "population": "2404", "province": "CS", "state": "IT" }, "geometry": { "type": "Point", "coordinates": [ 16.33193, 39.28384 ] } },
{ "type": "Feature", "properties": { "name": "Carpanzano", "population": "300", "province": "CS", "state": "IT" }, "geometry": { "type": "Point", "coordinates": [ 16.30451, 39.14817 ] } },
{ "type": "Feature", "properties": { "name": "Carolei", "population": "1320", "province": "CS", "state": "IT" }, "geometry": { "type": "Point", "coordinates": [ 16.21979, 39.25472 ] } },
{ "type": "Feature", "properties": { "name": "Carlopoli", "population": "1003", "province": "CZ", "state": "IT" }, "geometry": { "type": "Point", "coordinates": [ 16.45455, 39.05406 ] } },
{ "type": "Feature", "properties": { "name": "Dipignano", "population": "1252", "province": "CS", "state": "IT" }, "geometry": { "type": "Point", "coordinates": [ 16.25184, 39.23869 ] } },
{ "type": "Feature", "properties": { "name": "Campana", "population": "1953", "province": "CS", "state": "IT" }, "geometry": { "type": "Point", "coordinates": [ 16.8222, 39.4136 ] } },
{ "type": "Feature", "properties": { "name": "Camigliatello Silano", "population": "896", "province": "CS", "state": "IT" }, "geometry": { "type": "Point", "coordinates": [ 16.44148, 39.34093 ] } },
{ "type": "Feature", "properties": { "name": "Caloveto", "population": "1283", "province": "CS", "state": "IT" }, "geometry": { "type": "Point", "coordinates": [ 16.76065, 39.50656 ] } },
{ "type": "Feature", "properties": { "name": "Caloppezzati", "population": "598", "province": "CS", "state": "IT" }, "geometry": { "type": "Point", "coordinates": [ 16.8018, 39.5612 ] } },
{ "type": "Feature", "properties": { "name": "Caccuri", "population": "1211", "province": "KR", "state": "IT" }, "geometry": { "type": "Point", "coordinates": [ 16.77767, 39.22562 ] } },
{ "type": "Feature", "properties": { "name": "Bocchigliero", "population": "1474", "province": "CS", "state": "IT" }, "geometry": { "type": "Point", "coordinates": [ 16.75057, 39.4193 ] } },
{ "type": "Feature", "properties": { "name": "Bisignano", "population": "5055", "province": "CS", "state": "IT" }, "geometry": { "type": "Point", "coordinates": [ 16.28106, 39.50727 ] } },
{ "type": "Feature", "properties": { "name": "Bianchi", "population": "367", "province": "CS", "state": "IT" }, "geometry": { "type": "Point", "coordinates": [ 16.41018, 39.10058 ] } },
{ "type": "Feature", "properties": { "name": "Belsito", "population": "435", "province": "CS", "state": "IT" }, "geometry": { "type": "Point", "coordinates": [ 16.28745, 39.17685 ] } },
{ "type": "Feature", "properties": { "name": "Belmonte Calabro", "population": "456", "province": "CS", "state": "IT" }, "geometry": { "type": "Point", "coordinates": [ 16.08215, 39.16398 ] } },
{ "type": "Feature", "properties": { "name": "Amica", "population": "1403", "province": "CS", "state": "IT" }, "geometry": { "type": "Point", "coordinates": [ 16.66694, 39.60085 ] } },
{ "type": "Feature", "properties": { "name": "Amantea", "population": "8917", "province": "CS", "state": "IT" }, "geometry": { "type": "Point", "coordinates": [ 16.07512, 39.12658 ] } },
{ "type": "Feature", "properties": { "name": "Altomonte", "population": "2041", "province": "CS", "state": "IT" }, "geometry": { "type": "Point", "coordinates": [ 16.12999, 39.699 ] } },
{ "type": "Feature", "properties": { "name": "Altilia", "population": "262", "province": "CS", "state": "IT" }, "geometry": { "type": "Point", "coordinates": [ 16.25269, 39.13049 ] } },
{ "type": "Feature", "properties": { "name": "Albi", "population": "758", "province": "CZ", "state": "IT" }, "geometry": { "type": "Point", "coordinates": [ 16.59721, 39.02456 ] } },
{ "type": "Feature", "properties": { "name": "Aiello Calabro", "population": "724", "province": "CS", "state": "IT" }, "geometry": { "type": "Point", "coordinates": [ 16.16539, 39.11785 ] } },
{ "type": "Feature", "properties": { "name": "Acri", "population": "9862", "province": "CS", "state": "IT" }, "geometry": { "type": "Point", "coordinates": [ 16.38635, 39.49624 ] } },
{ "type": "Feature", "properties": { "name": "Acquappesa", "population": "377", "province": "CS", "state": "IT" }, "geometry": { "type": "Point", "coordinates": [ 15.95419, 39.49573 ] } },
{ "type": "Feature", "properties": { "name": "Acquaformosa", "population": "1145", "province": "CS", "state": "IT" }, "geometry": { "type": "Point", "coordinates": [ 16.09096, 39.72278 ] } },
{ "type": "Feature", "properties": { "name": "Calvisi", "population": "513", "province": "CS", "state": "IT" }, "geometry": { "type": "Point", "coordinates": [ 16.3059, 39.12739 ] } },
{ "type": "Feature", "properties": { "name": "Conflenti", "population": "696", "province": "CZ", "state": "IT" }, "geometry": { "type": "Point", "coordinates": [ 16.2845, 39.07169 ] } },
{ "type": "Feature", "properties": { "name": "Figline Vegliaturo", "population": "895", "province": "CS", "state": "IT" }, "geometry": { "type": "Point", "coordinates": [ 16.3303, 39.22519 ] } },
{ "type": "Feature", "properties": { "name": "Castelsilano", "population": "991", "province": "KR", "state": "IT" }, "geometry": { "type": "Point", "coordinates": [ 16.76741, 39.2691 ] } },
{ "type": "Feature", "properties": { "name": "Arcavacata", "population": "1831", "province": "CS", "state": "IT" }, "geometry": { "type": "Point", "coordinates": [ 16.20844, 39.35846 ] } },
{ "type": "Feature", "properties": { "name": "Andreotta", "population": "6763", "province": "CS", "state": "IT" }, "geometry": { "type": "Point", "coordinates": [ 16.2177, 39.3075 ] } },
{ "type": "Feature", "properties": { "name": "Tivolille Pasquali-Merenzata", "population": "4381", "province": "CS", "state": "IT" }, "geometry": { "type": "Point", "coordinates": [ 16.20738, 39.27953 ] } },
{ "type": "Feature", "properties": { "name": "Taverna", "population": "3292", "province": "CS", "state": "IT" }, "geometry": { "type": "Point", "coordinates": [ 16.2309, 39.4304 ] } },
{ "type": "Feature", "properties": { "name": "Settimo", "population": "2611", "province": "CS", "state": "IT" }, "geometry": { "type": "Point", "coordinates": [ 16.23998, 39.39158 ] } },
{ "type": "Feature", "properties": { "name": "Fabrizio", "population": "2172", "province": "CS", "state": "IT" }, "geometry": { "type": "Point", "coordinates": [ 16.55666, 39.63939 ] } },
{ "type": "Feature", "properties": { "name": "Santo Stefano", "population": "1795", "province": "CS", "state": "IT" }, "geometry": { "type": "Point", "coordinates": [ 16.19898, 39.34734 ] } },
{ "type": "Feature", "properties": { "name": "Stazione Montalto-Coretto", "population": "1712", "province": "CS", "state": "IT" }, "geometry": { "type": "Point", "coordinates": [ 16.24313, 39.4072 ] } },
{ "type": "Feature", "properties": { "name": "Cavoni-Ginestreto", "population": "1558", "province": "CS", "state": "IT" }, "geometry": { "type": "Point", "coordinates": [ 16.26267, 39.45212 ] } },
{ "type": "Feature", "properties": { "name": "Vadue", "population": "1336", "province": "CS", "state": "IT" }, "geometry": { "type": "Point", "coordinates": [ 16.22875, 39.2806 ] } },
{ "type": "Feature", "properties": { "name": "Cantinella", "population": "1227", "province": "CS", "state": "IT" }, "geometry": { "type": "Point", "coordinates": [ 16.44912, 39.66458 ] } },
{ "type": "Feature", "properties": { "name": "Rosario", "population": "1122", "province": "CS", "state": "IT" }, "geometry": { "type": "Point", "coordinates": [ 16.23125, 39.29104 ] } },
{ "type": "Feature", "properties": { "name": "San Nico", "population": "1026", "province": "CS", "state": "IT" }, "geometry": { "type": "Point", "coordinates": [ 16.43182, 39.66906 ] } },
{ "type": "Feature", "properties": { "name": "Piragineti", "population": "982", "province": "CS", "state": "IT" }, "geometry": { "type": "Point", "coordinates": [ 16.57398, 39.60972 ] } },
{ "type": "Feature", "properties": { "name": "Ortomatera", "population": "941", "province": "CS", "state": "IT" }, "geometry": { "type": "Point", "coordinates": [ 16.21433, 39.32452 ] } },
{ "type": "Feature", "properties": { "name": "Salerni", "population": "898", "province": "CS", "state": "IT" }, "geometry": { "type": "Point", "coordinates": [ 16.22904, 39.3878 ] } },
{ "type": "Feature", "properties": { "name": "Apollinara", "population": "846", "province": "CS", "state": "IT" }, "geometry": { "type": "Point", "coordinates": [ 16.41738, 39.70107 ] } },
{ "type": "Feature", "properties": { "name": "Scalo Ferroviario", "population": "779", "province": "CS", "state": "IT" }, "geometry": { "type": "Point", "coordinates": [ 16.05971, 39.24596 ] } },
{ "type": "Feature", "properties": { "name": "San Filippo-Battendieri", "population": "750", "province": "CS", "state": "IT" }, "geometry": { "type": "Point", "coordinates": [ 15.97075, 39.50466 ] } },
{ "type": "Feature", "properties": { "name": "Redipiano", "population": "745", "province": "CS", "state": "IT" }, "geometry": { "type": "Point", "coordinates": [ 16.31645, 39.35279 ] } },
{ "type": "Feature", "properties": { "name": "Villapiana Scalo", "population": "743", "province": "CS", "state": "IT" }, "geometry": { "type": "Point", "coordinates": [ 16.47949, 39.79045 ] } },
{ "type": "Feature", "properties": { "name": "Fontanesi-Santa Lucia", "population": "694", "province": "CS", "state": "IT" }, "geometry": { "type": "Point", "coordinates": [ 16.1908, 39.30117 ] } },
{ "type": "Feature", "properties": { "name": "Marina", "population": "679", "province": "CS", "state": "IT" }, "geometry": { "type": "Point", "coordinates": [ 16.06608, 39.16368 ] } },
{ "type": "Feature", "properties": { "name": "Amendola", "population": "674", "province": "CS", "state": "IT" }, "geometry": { "type": "Point", "coordinates": [ 16.13687, 39.34338 ] } },
{ "type": "Feature", "properties": { "name": "Corica", "population": "665", "province": "CS", "state": "IT" }, "geometry": { "type": "Point", "coordinates": [ 16.08772, 39.08471 ] } },
{ "type": "Feature", "properties": { "name": "Arente", "population": "660", "province": "CS", "state": "IT" }, "geometry": { "type": "Point", "coordinates": [ 16.26277, 39.38263 ] } },
{ "type": "Feature", "properties": { "name": "Foresta", "population": "657", "province": "CS", "state": "IT" }, "geometry": { "type": "Point", "coordinates": [ 16.49658, 39.56448 ] } },
{ "type": "Feature", "properties": { "name": "Morelli Catena Sottana", "population": "655", "province": "CS", "state": "IT" }, "geometry": { "type": "Point", "coordinates": [ 16.28351, 39.2812 ] } },
{ "type": "Feature", "properties": { "name": "Casello dei Morti", "population": "631", "province": "CS", "state": "IT" }, "geometry": { "type": "Point", "coordinates": [ 16.11671, 39.59698 ] } },
{ "type": "Feature", "properties": { "name": "Pertina", "population": "604", "province": "CS", "state": "IT" }, "geometry": { "type": "Point", "coordinates": [ 16.44122, 39.51646 ] } },
{ "type": "Feature", "properties": { "name": "Pianetti", "population": "603", "province": "CS", "state": "IT" }, "geometry": { "type": "Point", "coordinates": [ 16.19307, 39.43029 ] } },
{ "type": "Feature", "properties": { "name": "Contessa", "population": "599", "province": "CS", "state": "IT" }, "geometry": { "type": "Point", "coordinates": [ 16.21569, 39.43998 ] } },
{ "type": "Feature", "properties": { "name": "Scalo Ferroviario", "population": "598", "province": "CS", "state": "IT" }, "geometry": { "type": "Point", "coordinates": [ 16.20724, 39.60722 ] } },
{ "type": "Feature", "properties": { "name": "Padula", "population": "595", "province": "CS", "state": "IT" }, "geometry": { "type": "Point", "coordinates": [ 16.27013, 39.33931 ] } },
{ "type": "Feature", "properties": { "name": "Serra Miceli", "population": "592", "province": "CS", "state": "IT" }, "geometry": { "type": "Point", "coordinates": [ 16.20131, 39.30552 ] } },
{ "type": "Feature", "properties": { "name": "Capitano", "population": "579", "province": "CS", "state": "IT" }, "geometry": { "type": "Point", "coordinates": [ 16.27053, 39.35728 ] } },
{ "type": "Feature", "properties": { "name": "Chimento", "population": "572", "province": "CS", "state": "IT" }, "geometry": { "type": "Point", "coordinates": [ 16.46039, 39.56005 ] } },
{ "type": "Feature", "properties": { "name": "Scaro-Reggio-Scornavacca-Vardano", "population": "556", "province": "CS", "state": "IT" }, "geometry": { "type": "Point", "coordinates": [ 16.06131, 39.22837 ] } },
{ "type": "Feature", "properties": { "name": "Macchia", "population": "543", "province": "CS", "state": "IT" }, "geometry": { "type": "Point", "coordinates": [ 16.42296, 39.50551 ] } },
{ "type": "Feature", "properties": { "name": "Torremezzo di Falconara", "population": "536", "province": "CS", "state": "IT" }, "geometry": { "type": "Point", "coordinates": [ 16.05792, 39.26871 ] } },
{ "type": "Feature", "properties": { "name": "Vallegianno", "population": "535", "province": "CS", "state": "IT" }, "geometry": { "type": "Point", "coordinates": [ 16.30519, 39.19922 ] } },
{ "type": "Feature", "properties": { "name": "Bucita", "population": "518", "province": "CS", "state": "IT" }, "geometry": { "type": "Point", "coordinates": [ 16.13197, 39.34764 ] } },
{ "type": "Feature", "properties": { "name": "Corigliano Scalo", "population": "15136", "province": "CS", "state": "IT" }, "geometry": { "type": "Point", "coordinates": [ 16.51368, 39.62713 ] } },
{ "type": "Feature", "properties": { "name": "Marina", "population": "1127", "province": "CS", "state": "IT" }, "geometry": { "type": "Point", "coordinates": [ 15.98122, 39.4633 ] } },
{ "type": "Feature", "properties": { "name": "Santa Maria di Settimo", "population": "604", "province": "CS", "state": "IT" }, "geometry": { "type": "Point", "coordinates": [ 16.20178, 39.37601 ] } },
{ "type": "Feature", "properties": { "name": "Villapiana Lido", "population": "2076", "province": "CS", "state": "IT" }, "geometry": { "type": "Point", "coordinates": [ 16.4882, 39.81203 ] } },
{ "type": "Feature", "properties": { "name": "Cetraro Marina", "population": "4019", "province": "CS", "state": "IT" }, "geometry": { "type": "Point", "coordinates": [ 15.9346, 39.51701 ] } }
]
}
