{
"type": "FeatureCollection",
"name": "Municipalities",
"features": [
{ "type": "Feature", "properties": { "name": "Zuccarello", "population": "279", "province": "SV", "state": "IT" }, "geometry": { "type": "Point", "coordinates": [ 8.11814, 44.10973 ] } },
{ "type": "Feature", "properties": { "name": "Voze", "population": "520", "province": "SV", "state": "IT" }, "geometry": { "type": "Point", "coordinates": [ 8.39553, 44.21365 ] } },
{ "type": "Feature", "properties": { "name": "Volvera", "population": "5660", "province": "TO", "state": "IT" }, "geometry": { "type": "Point", "coordinates": [ 7.51142, 44.95484 ] } },
{ "type": "Feature", "properties": { "name": "Virle Piemonte", "population": "1099", "province": "TO", "state": "IT" }, "geometry": { "type": "Point", "coordinates": [ 7.57033, 44.86369 ] } },
{ "type": "Feature", "properties": { "name": "Villar Perosa", "population": "3930", "province": "TO", "state": "IT" }, "geometry": { "type": "Point", "coordinates": [ 7.24821, 44.91849 ] } },
{ "type": "Feature", "properties": { "name": "Villar Pellice", "population": "809", "province": "TO", "state": "IT" }, "geometry": { "type": "Point", "coordinates": [ 7.15978, 44.80893 ] } },
{ "type": "Feature", "properties": { "name": "Villar Focchiardo", "population": "2037", "province": "TO", "state": "IT" }, "geometry": { "type": "Point", "coordinates": [ 7.23841, 45.11244 ] } },
{ "type": "Feature", "properties": { "name": "Villanova d'Albenga", "population": "2171", "province": "SV", "state": "IT" }, "geometry": { "type": "Point", "coordinates": [ 8.14336, 44.04725 ] } },
{ "type": "Feature", "properties": { "name": "Villafranca Piemonte", "population": "3247", "province": "TO", "state": "IT" }, "geometry": { "type": "Point", "coordinates": [ 7.50788, 44.78824 ] } },
{ "type": "Feature", "properties": { "name": "Villa Faraldi", "population": "115", "province": "IM", "state": "IT" }, "geometry": { "type": "Point", "coordinates": [ 8.08965, 43.96843 ] } },
{ "type": "Feature", "properties": { "name": "Vigone", "population": "3907", "province": "TO", "state": "IT" }, "geometry": { "type": "Point", "coordinates": [ 7.49774, 44.84236 ] } },
{ "type": "Feature", "properties": { "name": "Vessalico", "population": "225", "province": "IM", "state": "IT" }, "geometry": { "type": "Point", "coordinates": [ 7.96013, 44.04559 ] } },
{ "type": "Feature", "properties": { "name": "Verzuolo", "population": "4940", "province": "CN", "state": "IT" }, "geometry": { "type": "Point", "coordinates": [ 7.48164, 44.59279 ] } },
{ "type": "Feature", "properties": { "name": "Venasca", "population": "1227", "province": "CN", "state": "IT" }, "geometry": { "type": "Point", "coordinates": [ 7.39698, 44.56134 ] } },
{ "type": "Feature", "properties": { "name": "Vasia", "population": "216", "province": "IM", "state": "IT" }, "geometry": { "type": "Point", "coordinates": [ 7.95389, 43.93268 ] } },
{ "type": "Feature", "properties": { "name": "Varigotti", "population": "577", "province": "SV", "state": "IT" }, "geometry": { "type": "Point", "coordinates": [ 8.39544, 44.18196 ] } },
{ "type": "Feature", "properties": { "name": "Valgioie", "population": "824", "province": "TO", "state": "IT" }, "geometry": { "type": "Point", "coordinates": [ 7.34927, 45.064 ] } },
{ "type": "Feature", "properties": { "name": "Vado Ligure", "population": "7991", "province": "SV", "state": "IT" }, "geometry": { "type": "Point", "coordinates": [ 8.43375, 44.26913 ] } },
{ "type": "Feature", "properties": { "name": "Trana", "population": "1701", "province": "TO", "state": "IT" }, "geometry": { "type": "Point", "coordinates": [ 7.421, 45.03862 ] } },
{ "type": "Feature", "properties": { "name": "Torre Pellice", "population": "4043", "province": "TO", "state": "IT" }, "geometry": { "type": "Point", "coordinates": [ 7.21672, 44.82102 ] } },
{ "type": "Feature", "properties": { "name": "Toirano", "population": "2430", "province": "SV", "state": "IT" }, "geometry": { "type": "Point", "coordinates": [ 8.20725, 44.12732 ] } },
{ "type": "Feature", "properties": { "name": "Testico", "population": "102", "province": "SV", "state": "IT" }, "geometry": { "type": "Point", "coordinates": [ 8.02639, 44.00553 ] } },
{ "type": "Feature", "properties": { "name": "Terzorio", "population": "198", "province": "IM", "state": "IT" }, "geometry": { "type": "Point", "coordinates": [ 7.89835, 43.85232 ] } },
{ "type": "Feature", "properties": { "name": "Taggia", "population": "12762", "province": "IM", "state": "IT" }, "geometry": { "type": "Point", "coordinates": [ 7.85223, 43.84612 ] } },
{ "type": "Feature", "properties": { "name": "Stellanello", "population": "754", "province": "SV", "state": "IT" }, "geometry": { "type": "Point", "coordinates": [ 8.06025, 43.99993 ] } },
{ "type": "Feature", "properties": { "name": "Spotorno", "population": "3841", "province": "SV", "state": "IT" }, "geometry": { "type": "Point", "coordinates": [ 8.41647, 44.22638 ] } },
{ "type": "Feature", "properties": { "name": "Scarnafigi", "population": "1432", "province": "CN", "state": "IT" }, "geometry": { "type": "Point", "coordinates": [ 7.56513, 44.67944 ] } },
{ "type": "Feature", "properties": { "name": "Scalenghe", "population": "1525", "province": "TO", "state": "IT" }, "geometry": { "type": "Point", "coordinates": [ 7.49423, 44.8899 ] } },
{ "type": "Feature", "properties": { "name": "Santo Stefano al Mare", "population": "1842", "province": "IM", "state": "IT" }, "geometry": { "type": "Point", "coordinates": [ 7.89728, 43.83855 ] } },
{ "type": "Feature", "properties": { "name": "Sant'Antonino di Susa", "population": "4156", "province": "TO", "state": "IT" }, "geometry": { "type": "Point", "coordinates": [ 7.27333, 45.10763 ] } },
{ "type": "Feature", "properties": { "name": "Sant'Ambrogio di Torino", "population": "4688", "province": "TO", "state": "IT" }, "geometry": { "type": "Point", "coordinates": [ 7.366, 45.09622 ] } },
{ "type": "Feature", "properties": { "name": "San Remo", "population": "47043", "province": "IM", "state": "IT" }, "geometry": { "type": "Point", "coordinates": [ 7.7772, 43.81725 ] } },
{ "type": "Feature", "properties": { "name": "San Lorenzo al Mare", "population": "1321", "province": "IM", "state": "IT" }, "geometry": { "type": "Point", "coordinates": [ 7.96406, 43.85378 ] } },
{ "type": "Feature", "properties": { "name": "San Giorio", "population": "824", "province": "TO", "state": "IT" }, "geometry": { "type": "Point", "coordinates": [ 7.17683, 45.12752 ] } },
{ "type": "Feature", "properties": { "name": "San Gillio", "population": "2631", "province": "TO", "state": "IT" }, "geometry": { "type": "Point", "coordinates": [ 7.53285, 45.1405 ] } },
{ "type": "Feature", "properties": { "name": "Sangano", "population": "3459", "province": "TO", "state": "IT" }, "geometry": { "type": "Point", "coordinates": [ 7.44987, 45.02508 ] } },
{ "type": "Feature", "properties": { "name": "Sanfront", "population": "1190", "province": "CN", "state": "IT" }, "geometry": { "type": "Point", "coordinates": [ 7.32243, 44.64698 ] } },
{ "type": "Feature", "properties": { "name": "Sampeyre", "population": "566", "province": "CN", "state": "IT" }, "geometry": { "type": "Point", "coordinates": [ 7.19039, 44.57846 ] } },
{ "type": "Feature", "properties": { "name": "Saluzzo", "population": "16537", "province": "CN", "state": "IT" }, "geometry": { "type": "Point", "coordinates": [ 7.49309, 44.64671 ] } },
{ "type": "Feature", "properties": { "name": "Ruffia", "population": "252", "province": "CN", "state": "IT" }, "geometry": { "type": "Point", "coordinates": [ 7.60391, 44.70598 ] } },
{ "type": "Feature", "properties": { "name": "Rubiana", "population": "1838", "province": "TO", "state": "IT" }, "geometry": { "type": "Point", "coordinates": [ 7.38439, 45.13622 ] } },
{ "type": "Feature", "properties": { "name": "Rivoli", "population": "46031", "province": "TO", "state": "IT" }, "geometry": { "type": "Point", "coordinates": [ 7.51465, 45.07073 ] } },
{ "type": "Feature", "properties": { "name": "Rivalta di Torino", "population": "10411", "province": "TO", "state": "IT" }, "geometry": { "type": "Point", "coordinates": [ 7.52042, 45.03268 ] } },
{ "type": "Feature", "properties": { "name": "Riva Ligure", "population": "2496", "province": "IM", "state": "IT" }, "geometry": { "type": "Point", "coordinates": [ 7.87935, 43.83883 ] } },
{ "type": "Feature", "properties": { "name": "Rezzo", "population": "237", "province": "IM", "state": "IT" }, "geometry": { "type": "Point", "coordinates": [ 7.87199, 44.02101 ] } },
{ "type": "Feature", "properties": { "name": "Revello", "population": "2186", "province": "CN", "state": "IT" }, "geometry": { "type": "Point", "coordinates": [ 7.39026, 44.65451 ] } },
{ "type": "Feature", "properties": { "name": "Reano", "population": "1598", "province": "TO", "state": "IT" }, "geometry": { "type": "Point", "coordinates": [ 7.42779, 45.05217 ] } },
{ "type": "Feature", "properties": { "name": "Racconigi", "population": "9156", "province": "CN", "state": "IT" }, "geometry": { "type": "Point", "coordinates": [ 7.67893, 44.76598 ] } },
{ "type": "Feature", "properties": { "name": "Quiliano", "population": "2801", "province": "SV", "state": "IT" }, "geometry": { "type": "Point", "coordinates": [ 8.41406, 44.29215 ] } },
{ "type": "Feature", "properties": { "name": "Prali", "population": "266", "province": "TO", "state": "IT" }, "geometry": { "type": "Point", "coordinates": [ 7.05131, 44.88944 ] } },
{ "type": "Feature", "properties": { "name": "Pornassio", "population": "651", "province": "IM", "state": "IT" }, "geometry": { "type": "Point", "coordinates": [ 7.86954, 44.07053 ] } },
{ "type": "Feature", "properties": { "name": "Pontedassio", "population": "1436", "province": "IM", "state": "IT" }, "geometry": { "type": "Point", "coordinates": [ 8.01464, 43.9383 ] } },
{ "type": "Feature", "properties": { "name": "Pompeiana", "population": "775", "province": "IM", "state": "IT" }, "geometry": { "type": "Point", "coordinates": [ 7.88836, 43.85297 ] } },
{ "type": "Feature", "properties": { "name": "Pomaretto", "population": "976", "province": "TO", "state": "IT" }, "geometry": { "type": "Point", "coordinates": [ 7.18128, 44.9559 ] } },
{ "type": "Feature", "properties": { "name": "Poggi Inferiore Poggi Superiore", "population": "743", "province": "IM", "state": "IT" }, "geometry": { "type": "Point", "coordinates": [ 7.98397, 43.8703 ] } },
{ "type": "Feature", "properties": { "name": "Piossasco", "population": "16904", "province": "TO", "state": "IT" }, "geometry": { "type": "Point", "coordinates": [ 7.4601, 44.98802 ] } },
{ "type": "Feature", "properties": { "name": "Piobesi Torinese", "population": "3478", "province": "CN", "state": "IT" }, "geometry": { "type": "Point", "coordinates": [ 7.61667, 44.76667 ] } },
{ "type": "Feature", "properties": { "name": "Pinerolo", "population": "30866", "province": "TO", "state": "IT" }, "geometry": { "type": "Point", "coordinates": [ 7.33135, 44.88534 ] } },
{ "type": "Feature", "properties": { "name": "Pieve di Teco", "population": "877", "province": "IM", "state": "IT" }, "geometry": { "type": "Point", "coordinates": [ 7.91564, 44.04706 ] } },
{ "type": "Feature", "properties": { "name": "Pietra Ligure", "population": "8478", "province": "SV", "state": "IT" }, "geometry": { "type": "Point", "coordinates": [ 8.28206, 44.1492 ] } },
{ "type": "Feature", "properties": { "name": "Pietrabruna", "population": "365", "province": "IM", "state": "IT" }, "geometry": { "type": "Point", "coordinates": [ 7.90319, 43.88927 ] } },
{ "type": "Feature", "properties": { "name": "Pianezza", "population": "13242", "province": "TO", "state": "IT" }, "geometry": { "type": "Point", "coordinates": [ 7.55003, 45.1042 ] } },
{ "type": "Feature", "properties": { "name": "Perrero", "population": "243", "province": "TO", "state": "IT" }, "geometry": { "type": "Point", "coordinates": [ 7.11263, 44.93849 ] } },
{ "type": "Feature", "properties": { "name": "Perosa Argentina", "population": "2932", "province": "TO", "state": "IT" }, "geometry": { "type": "Point", "coordinates": [ 7.19167, 44.95909 ] } },
{ "type": "Feature", "properties": { "name": "Pancalieri", "population": "1892", "province": "TO", "state": "IT" }, "geometry": { "type": "Point", "coordinates": [ 7.58592, 44.83344 ] } },
{ "type": "Feature", "properties": { "name": "Paesana", "population": "1895", "province": "CN", "state": "IT" }, "geometry": { "type": "Point", "coordinates": [ 7.27571, 44.68332 ] } },
{ "type": "Feature", "properties": { "name": "Ortovero", "population": "987", "province": "SV", "state": "IT" }, "geometry": { "type": "Point", "coordinates": [ 8.0995, 44.05385 ] } },
{ "type": "Feature", "properties": { "name": "Orbassano", "population": "21813", "province": "TO", "state": "IT" }, "geometry": { "type": "Point", "coordinates": [ 7.53813, 45.00547 ] } },
{ "type": "Feature", "properties": { "name": "None", "population": "7507", "province": "TO", "state": "IT" }, "geometry": { "type": "Point", "coordinates": [ 7.54015, 44.93645 ] } },
{ "type": "Feature", "properties": { "name": "Noli", "population": "1673", "province": "SV", "state": "IT" }, "geometry": { "type": "Point", "coordinates": [ 8.41458, 44.20608 ] } },
{ "type": "Feature", "properties": { "name": "Nichelino", "population": "47605", "province": "TO", "state": "IT" }, "geometry": { "type": "Point", "coordinates": [ 7.65305, 45.00031 ] } },
{ "type": "Feature", "properties": { "name": "Nasino-Borgo", "population": "163", "province": "SV", "state": "IT" }, "geometry": { "type": "Point", "coordinates": [ 8.03205, 44.11363 ] } },
{ "type": "Feature", "properties": { "name": "Moretta", "population": "3909", "province": "CN", "state": "IT" }, "geometry": { "type": "Point", "coordinates": [ 7.53632, 44.76137 ] } },
{ "type": "Feature", "properties": { "name": "Montalto Ligure", "population": "250", "province": "IM", "state": "IT" }, "geometry": { "type": "Point", "coordinates": [ 7.84491, 43.92868 ] } },
{ "type": "Feature", "properties": { "name": "Molino Nuovo", "population": "625", "province": "SV", "state": "IT" }, "geometry": { "type": "Point", "coordinates": [ 8.13005, 43.98195 ] } },
{ "type": "Feature", "properties": { "name": "Molini", "population": "133", "province": "IM", "state": "IT" }, "geometry": { "type": "Point", "coordinates": [ 7.93835, 43.92594 ] } },
{ "type": "Feature", "properties": { "name": "Milanere", "population": "1136", "province": "TO", "state": "IT" }, "geometry": { "type": "Point", "coordinates": [ 7.43373, 45.10436 ] } },
{ "type": "Feature", "properties": { "name": "Melle", "population": "203", "province": "CN", "state": "IT" }, "geometry": { "type": "Point", "coordinates": [ 7.31948, 44.56197 ] } },
{ "type": "Feature", "properties": { "name": "Massello", "population": "74", "province": "TO", "state": "IT" }, "geometry": { "type": "Point", "coordinates": [ 7.05671, 44.95874 ] } },
{ "type": "Feature", "properties": { "name": "Martiniana Po", "population": "781", "province": "CN", "state": "IT" }, "geometry": { "type": "Point", "coordinates": [ 7.36282, 44.62723 ] } },
{ "type": "Feature", "properties": { "name": "Marina di Andora", "population": "5008", "province": "SV", "state": "IT" }, "geometry": { "type": "Point", "coordinates": [ 8.1546, 43.95353 ] } },
{ "type": "Feature", "properties": { "name": "Manta", "population": "3372", "province": "CN", "state": "IT" }, "geometry": { "type": "Point", "coordinates": [ 7.48703, 44.61583 ] } },
{ "type": "Feature", "properties": { "name": "Luserna", "population": "1058", "province": "TO", "state": "IT" }, "geometry": { "type": "Point", "coordinates": [ 7.24579, 44.80745 ] } },
{ "type": "Feature", "properties": { "name": "Lucinasco", "population": "186", "province": "IM", "state": "IT" }, "geometry": { "type": "Point", "coordinates": [ 7.96005, 43.96602 ] } },
{ "type": "Feature", "properties": { "name": "Loano", "population": "11014", "province": "SV", "state": "IT" }, "geometry": { "type": "Point", "coordinates": [ 8.25743, 44.12777 ] } },
{ "type": "Feature", "properties": { "name": "La Loggia", "population": "8433", "province": "TO", "state": "IT" }, "geometry": { "type": "Point", "coordinates": [ 7.66864, 44.95495 ] } },
{ "type": "Feature", "properties": { "name": "Laigueglia", "population": "1773", "province": "SV", "state": "IT" }, "geometry": { "type": "Point", "coordinates": [ 8.15823, 43.9759 ] } },
{ "type": "Feature", "properties": { "name": "Imperia", "population": "38675", "province": "IM", "state": "IT" }, "geometry": { "type": "Point", "coordinates": [ 8.03933, 43.88917 ] } },
{ "type": "Feature", "properties": { "name": "Grugliasco", "population": "33100", "province": "TO", "state": "IT" }, "geometry": { "type": "Point", "coordinates": [ 7.57954, 45.06516 ] } },
{ "type": "Feature", "properties": { "name": "Giaveno", "population": "11540", "province": "TO", "state": "IT" }, "geometry": { "type": "Point", "coordinates": [ 7.34722, 45.04435 ] } },
{ "type": "Feature", "properties": { "name": "Garlenda", "population": "957", "province": "SV", "state": "IT" }, "geometry": { "type": "Point", "coordinates": [ 8.09546, 44.03325 ] } },
{ "type": "Feature", "properties": { "name": "Gambasca", "population": "147", "province": "CN", "state": "IT" }, "geometry": { "type": "Point", "coordinates": [ 7.34686, 44.6295 ] } },
{ "type": "Feature", "properties": { "name": "Frassino", "population": "172", "province": "CN", "state": "IT" }, "geometry": { "type": "Point", "coordinates": [ 7.27536, 44.57211 ] } },
{ "type": "Feature", "properties": { "name": "Finale Ligure", "population": "9495", "province": "SV", "state": "IT" }, "geometry": { "type": "Point", "coordinates": [ 8.3436, 44.16952 ] } },
{ "type": "Feature", "properties": { "name": "Fenestrelle", "population": "317", "province": "TO", "state": "IT" }, "geometry": { "type": "Point", "coordinates": [ 7.04941, 45.03594 ] } },
{ "type": "Feature", "properties": { "name": "Erli", "population": "184", "province": "SV", "state": "IT" }, "geometry": { "type": "Point", "coordinates": [ 8.1043, 44.13719 ] } },
{ "type": "Feature", "properties": { "name": "Envie", "population": "780", "province": "CN", "state": "IT" }, "geometry": { "type": "Point", "coordinates": [ 7.37206, 44.6821 ] } },
{ "type": "Feature", "properties": { "name": "Dolcedo", "population": "646", "province": "IM", "state": "IT" }, "geometry": { "type": "Point", "coordinates": [ 7.94943, 43.90735 ] } },
{ "type": "Feature", "properties": { "name": "Diano San Pietro", "population": "551", "province": "IM", "state": "IT" }, "geometry": { "type": "Point", "coordinates": [ 8.07249, 43.92953 ] } },
{ "type": "Feature", "properties": { "name": "Diano Marina", "population": "5130", "province": "IM", "state": "IT" }, "geometry": { "type": "Point", "coordinates": [ 8.08029, 43.91088 ] } },
{ "type": "Feature", "properties": { "name": "Diano Castello", "population": "1554", "province": "IM", "state": "IT" }, "geometry": { "type": "Point", "coordinates": [ 8.06602, 43.92423 ] } },
{ "type": "Feature", "properties": { "name": "Cumiana", "population": "5498", "province": "TO", "state": "IT" }, "geometry": { "type": "Point", "coordinates": [ 7.37761, 44.97629 ] } },
{ "type": "Feature", "properties": { "name": "Crissolo", "population": "210", "province": "CN", "state": "IT" }, "geometry": { "type": "Point", "coordinates": [ 7.15602, 44.69953 ] } },
{ "type": "Feature", "properties": { "name": "Costarainera", "population": "377", "province": "IM", "state": "IT" }, "geometry": { "type": "Point", "coordinates": [ 7.94106, 43.85477 ] } },
{ "type": "Feature", "properties": { "name": "Condove", "population": "4057", "province": "TO", "state": "IT" }, "geometry": { "type": "Point", "coordinates": [ 7.30859, 45.11591 ] } },
{ "type": "Feature", "properties": { "name": "Collegno", "population": "46524", "province": "TO", "state": "IT" }, "geometry": { "type": "Point", "coordinates": [ 7.56735, 45.07873 ] } },
{ "type": "Feature", "properties": { "name": "Coazze", "population": "2785", "province": "TO", "state": "IT" }, "geometry": { "type": "Point", "coordinates": [ 7.30063, 45.05181 ] } },
{ "type": "Feature", "properties": { "name": "Civezza", "population": "357", "province": "IM", "state": "IT" }, "geometry": { "type": "Point", "coordinates": [ 7.95165, 43.87982 ] } },
{ "type": "Feature", "properties": { "name": "Cisano", "population": "585", "province": "SV", "state": "IT" }, "geometry": { "type": "Point", "coordinates": [ 8.14829, 44.08565 ] } },
{ "type": "Feature", "properties": { "name": "Cipressa", "population": "369", "province": "IM", "state": "IT" }, "geometry": { "type": "Point", "coordinates": [ 7.93144, 43.85205 ] } },
{ "type": "Feature", "properties": { "name": "Chiusavecchia", "population": "359", "province": "IM", "state": "IT" }, "geometry": { "type": "Point", "coordinates": [ 7.98443, 43.96726 ] } },
{ "type": "Feature", "properties": { "name": "Chiusanico", "population": "219", "province": "IM", "state": "IT" }, "geometry": { "type": "Point", "coordinates": [ 7.99185, 43.97303 ] } },
{ "type": "Feature", "properties": { "name": "Cesio", "population": "153", "province": "IM", "state": "IT" }, "geometry": { "type": "Point", "coordinates": [ 7.97515, 44.00803 ] } },
{ "type": "Feature", "properties": { "name": "Cervo", "population": "1021", "province": "IM", "state": "IT" }, "geometry": { "type": "Point", "coordinates": [ 8.11529, 43.92572 ] } },
{ "type": "Feature", "properties": { "name": "Ceriana", "population": "915", "province": "IM", "state": "IT" }, "geometry": { "type": "Point", "coordinates": [ 7.77476, 43.88091 ] } },
{ "type": "Feature", "properties": { "name": "Ceriale", "population": "5152", "province": "SV", "state": "IT" }, "geometry": { "type": "Point", "coordinates": [ 8.22893, 44.09128 ] } },
{ "type": "Feature", "properties": { "name": "Cavour", "population": "2963", "province": "TO", "state": "IT" }, "geometry": { "type": "Point", "coordinates": [ 7.37438, 44.79286 ] } },
{ "type": "Feature", "properties": { "name": "Castellaro", "population": "471", "province": "IM", "state": "IT" }, "geometry": { "type": "Point", "coordinates": [ 7.86881, 43.86436 ] } },
{ "type": "Feature", "properties": { "name": "Casteldelfino", "population": "92", "province": "CN", "state": "IT" }, "geometry": { "type": "Point", "coordinates": [ 7.07026, 44.59002 ] } },
{ "type": "Feature", "properties": { "name": "Caselette", "population": "2875", "province": "TO", "state": "IT" }, "geometry": { "type": "Point", "coordinates": [ 7.48582, 45.10975 ] } },
{ "type": "Feature", "properties": { "name": "Casalgrasso", "population": "1258", "province": "CN", "state": "IT" }, "geometry": { "type": "Point", "coordinates": [ 7.62498, 44.81834 ] } },
{ "type": "Feature", "properties": { "name": "Carpasio", "population": "135", "province": "IM", "state": "IT" }, "geometry": { "type": "Point", "coordinates": [ 7.86631, 43.96024 ] } },
{ "type": "Feature", "properties": { "name": "Carignano", "population": "7322", "province": "TO", "state": "IT" }, "geometry": { "type": "Point", "coordinates": [ 7.67253, 44.90599 ] } },
{ "type": "Feature", "properties": { "name": "Caravonica", "population": "278", "province": "IM", "state": "IT" }, "geometry": { "type": "Point", "coordinates": [ 7.95805, 43.99303 ] } },
{ "type": "Feature", "properties": { "name": "Caprie", "population": "1005", "province": "TO", "state": "IT" }, "geometry": { "type": "Point", "coordinates": [ 7.33294, 45.11944 ] } },
{ "type": "Feature", "properties": { "name": "Candiolo", "population": "5452", "province": "TO", "state": "IT" }, "geometry": { "type": "Point", "coordinates": [ 7.59812, 44.95858 ] } },
{ "type": "Feature", "properties": { "name": "Buttigliera Alta", "population": "3443", "province": "TO", "state": "IT" }, "geometry": { "type": "Point", "coordinates": [ 7.43254, 45.06836 ] } },
{ "type": "Feature", "properties": { "name": "Buriasco", "population": "738", "province": "TO", "state": "IT" }, "geometry": { "type": "Point", "coordinates": [ 7.412, 44.87222 ] } },
{ "type": "Feature", "properties": { "name": "Bruino", "population": "8070", "province": "TO", "state": "IT" }, "geometry": { "type": "Point", "coordinates": [ 7.47754, 45.01506 ] } },
{ "type": "Feature", "properties": { "name": "Brossasco", "population": "943", "province": "CN", "state": "IT" }, "geometry": { "type": "Point", "coordinates": [ 7.36454, 44.56778 ] } },
{ "type": "Feature", "properties": { "name": "Bricherasio", "population": "2694", "province": "TO", "state": "IT" }, "geometry": { "type": "Point", "coordinates": [ 7.303, 44.82328 ] } },
{ "type": "Feature", "properties": { "name": "Borgone Susa", "population": "1857", "province": "TO", "state": "IT" }, "geometry": { "type": "Point", "coordinates": [ 7.23641, 45.12334 ] } },
{ "type": "Feature", "properties": { "name": "Borgomaro", "population": "361", "province": "IM", "state": "IT" }, "geometry": { "type": "Point", "coordinates": [ 7.94408, 43.9753 ] } },
{ "type": "Feature", "properties": { "name": "Borghetto Santo Spirito", "population": "4904", "province": "SV", "state": "IT" }, "geometry": { "type": "Point", "coordinates": [ 8.24129, 44.11187 ] } },
{ "type": "Feature", "properties": { "name": "Borghetto d'Arroscia", "population": "77", "province": "IM", "state": "IT" }, "geometry": { "type": "Point", "coordinates": [ 7.98076, 44.05672 ] } },
{ "type": "Feature", "properties": { "name": "Bobbio Pellice", "population": "409", "province": "TO", "state": "IT" }, "geometry": { "type": "Point", "coordinates": [ 7.11691, 44.80854 ] } },
{ "type": "Feature", "properties": { "name": "Bergeggi", "population": "1120", "province": "SV", "state": "IT" }, "geometry": { "type": "Point", "coordinates": [ 8.44402, 44.24833 ] } },
{ "type": "Feature", "properties": { "name": "Beinasco", "population": "6469", "province": "TO", "state": "IT" }, "geometry": { "type": "Point", "coordinates": [ 7.58564, 45.02472 ] } },
{ "type": "Feature", "properties": { "name": "Barge", "population": "3950", "province": "CN", "state": "IT" }, "geometry": { "type": "Point", "coordinates": [ 7.32283, 44.72786 ] } },
{ "type": "Feature", "properties": { "name": "Bardineto", "population": "577", "province": "SV", "state": "IT" }, "geometry": { "type": "Point", "coordinates": [ 8.13529, 44.18972 ] } },
{ "type": "Feature", "properties": { "name": "Balestrino", "population": "387", "province": "SV", "state": "IT" }, "geometry": { "type": "Point", "coordinates": [ 8.17064, 44.12426 ] } },
{ "type": "Feature", "properties": { "name": "Bagnolo Piemonte", "population": "2704", "province": "CN", "state": "IT" }, "geometry": { "type": "Point", "coordinates": [ 7.31392, 44.76034 ] } },
{ "type": "Feature", "properties": { "name": "Badalucco", "population": "1100", "province": "IM", "state": "IT" }, "geometry": { "type": "Point", "coordinates": [ 7.84584, 43.91683 ] } },
{ "type": "Feature", "properties": { "name": "Avigliana", "population": "9099", "province": "TO", "state": "IT" }, "geometry": { "type": "Point", "coordinates": [ 7.39647, 45.07978 ] } },
{ "type": "Feature", "properties": { "name": "Aurigo", "population": "267", "province": "IM", "state": "IT" }, "geometry": { "type": "Point", "coordinates": [ 7.92342, 43.98281 ] } },
{ "type": "Feature", "properties": { "name": "Alpignano", "population": "16598", "province": "TO", "state": "IT" }, "geometry": { "type": "Point", "coordinates": [ 7.52392, 45.09346 ] } },
{ "type": "Feature", "properties": { "name": "Almese-Rivera", "population": "5009", "province": "TO", "state": "IT" }, "geometry": { "type": "Point", "coordinates": [ 7.40111, 45.11915 ] } },
{ "type": "Feature", "properties": { "name": "Albenga", "population": "17103", "province": "SV", "state": "IT" }, "geometry": { "type": "Point", "coordinates": [ 8.21829, 44.04997 ] } },
{ "type": "Feature", "properties": { "name": "Alassio", "population": "10623", "province": "SV", "state": "IT" }, "geometry": { "type": "Point", "coordinates": [ 8.16713, 44.00393 ] } },
{ "type": "Feature", "properties": { "name": "Airasca", "population": "3583", "province": "TO", "state": "IT" }, "geometry": { "type": "Point", "coordinates": [ 7.48322, 44.91719 ] } },
{ "type": "Feature", "properties": { "name": "San Bartolomeo al Mare", "population": "2622", "province": "IM", "state": "IT" }, "geometry": { "type": "Point", "coordinates": [ 8.10482, 43.92312 ] } },
{ "type": "Feature", "properties": { "name": "Vinovo", "population": "10173", "province": "TO", "state": "IT" }, "geometry": { "type": "Point", "coordinates": [ 7.63252, 44.94674 ] } },
{ "type": "Feature", "properties": { "name": "Campiglione", "population": "565", "province": "TO", "state": "IT" }, "geometry": { "type": "Point", "coordinates": [ 7.32422, 44.80284 ] } },
{ "type": "Feature", "properties": { "name": "Inverso Pinasca", "population": "743", "province": "TO", "state": "IT" }, "geometry": { "type": "Point", "coordinates": [ 7.21841, 44.94564 ] } },
{ "type": "Feature", "properties": { "name": "Pinasca-Dubbione", "population": "2068", "province": "TO", "state": "IT" }, "geometry": { "type": "Point", "coordinates": [ 7.22912, 44.94264 ] } },
{ "type": "Feature", "properties": { "name": "Pramollo", "population": "258", "province": "TO", "state": "IT" }, "geometry": { "type": "Point", "coordinates": [ 7.19071, 44.90814 ] } },
{ "type": "Feature", "properties": { "name": "Prarostino", "population": "1302", "province": "TO", "state": "IT" }, "geometry": { "type": "Point", "coordinates": [ 7.26762, 44.86634 ] } },
{ "type": "Feature", "properties": { "name": "Roure", "population": "897", "province": "TO", "state": "IT" }, "geometry": { "type": "Point", "coordinates": [ 7.13161, 45.00214 ] } },
{ "type": "Feature", "properties": { "name": "Salza di Pinerolo", "population": "79", "province": "TO", "state": "IT" }, "geometry": { "type": "Point", "coordinates": [ 7.05241, 44.94004 ] } },
{ "type": "Feature", "properties": { "name": "Val della Torre", "population": "3529", "province": "TO", "state": "IT" }, "geometry": { "type": "Point", "coordinates": [ 7.44501, 45.15515 ] } },
{ "type": "Feature", "properties": { "name": "Caprauna", "population": "133", "province": "CN", "state": "IT" }, "geometry": { "type": "Point", "coordinates": [ 7.95495, 44.11603 ] } },
{ "type": "Feature", "properties": { "name": "Aquila di Arroscia", "population": "118", "province": "IM", "state": "IT" }, "geometry": { "type": "Point", "coordinates": [ 8.00525, 44.08593 ] } },
{ "type": "Feature", "properties": { "name": "Diano Arentino", "population": "226", "province": "IM", "state": "IT" }, "geometry": { "type": "Point", "coordinates": [ 8.04155, 43.94962 ] } },
{ "type": "Feature", "properties": { "name": "Ostana", "population": "79", "province": "CN", "state": "IT" }, "geometry": { "type": "Point", "coordinates": [ 7.18942, 44.69263 ] } },
{ "type": "Feature", "properties": { "name": "Pontechianale", "population": "208", "province": "CN", "state": "IT" }, "geometry": { "type": "Point", "coordinates": [ 7.03002, 44.62123 ] } },
{ "type": "Feature", "properties": { "name": "Magliolo", "population": "569", "province": "SV", "state": "IT" }, "geometry": { "type": "Point", "coordinates": [ 8.24935, 44.19253 ] } },
{ "type": "Feature", "properties": { "name": "Rialto", "population": "66", "province": "SV", "state": "IT" }, "geometry": { "type": "Point", "coordinates": [ 8.26135, 44.22653 ] } },
{ "type": "Feature", "properties": { "name": "Prelà Castello", "population": "20", "province": "IM", "state": "IT" }, "geometry": { "type": "Point", "coordinates": [ 7.94409, 43.94006 ] } },
{ "type": "Feature", "properties": { "name": "Borgo di Ranzo", "population": "219", "province": "IM", "state": "IT" }, "geometry": { "type": "Point", "coordinates": [ 8.01495, 44.05963 ] } },
{ "type": "Feature", "properties": { "name": "Andora", "population": "6767", "province": "SV", "state": "IT" }, "geometry": { "type": "Point", "coordinates": [ 8.14121, 43.95514 ] } },
{ "type": "Feature", "properties": { "name": "Arnasco", "population": "563", "province": "SV", "state": "IT" }, "geometry": { "type": "Point", "coordinates": [ 8.10745, 44.07823 ] } },
{ "type": "Feature", "properties": { "name": "Borgio", "population": "2167", "province": "SV", "state": "IT" }, "geometry": { "type": "Point", "coordinates": [ 8.30832, 44.15906 ] } },
{ "type": "Feature", "properties": { "name": "Castelbianco", "population": "287", "province": "SV", "state": "IT" }, "geometry": { "type": "Point", "coordinates": [ 8.07515, 44.11423 ] } },
{ "type": "Feature", "properties": { "name": "Giustenice", "population": "895", "province": "SV", "state": "IT" }, "geometry": { "type": "Point", "coordinates": [ 8.24305, 44.17293 ] } },
{ "type": "Feature", "properties": { "name": "Onzo", "population": "223", "province": "SV", "state": "IT" }, "geometry": { "type": "Point", "coordinates": [ 8.05225, 44.07013 ] } },
{ "type": "Feature", "properties": { "name": "Orco Feglino", "population": "814", "province": "SV", "state": "IT" }, "geometry": { "type": "Point", "coordinates": [ 8.32455, 44.22023 ] } },
{ "type": "Feature", "properties": { "name": "Vendone", "population": "431", "province": "SV", "state": "IT" }, "geometry": { "type": "Point", "coordinates": [ 8.07115, 44.07693 ] } },
{ "type": "Feature", "properties": { "name": "Vezzi Portio", "population": "690", "province": "SV", "state": "IT" }, "geometry": { "type": "Point", "coordinates": [ 8.36505, 44.22933 ] } },
{ "type": "Feature", "properties": { "name": "Murello", "population": "672", "province": "CN", "state": "IT" }, "geometry": { "type": "Point", "coordinates": [ 7.60093, 44.75214 ] } },
{ "type": "Feature", "properties": { "name": "Polonghera", "population": "1128", "province": "CN", "state": "IT" }, "geometry": { "type": "Point", "coordinates": [ 7.59572, 44.80234 ] } },
{ "type": "Feature", "properties": { "name": "Torre San Giorgio", "population": "577", "province": "CN", "state": "IT" }, "geometry": { "type": "Point", "coordinates": [ 7.52813, 44.73574 ] } },
{ "type": "Feature", "properties": { "name": "Angrogna", "population": "28", "province": "TO", "state": "IT" }, "geometry": { "type": "Point", "coordinates": [ 7.22422, 44.84354 ] } },
{ "type": "Feature", "properties": { "name": "Armo", "population": "81", "province": "IM", "state": "IT" }, "geometry": { "type": "Point", "coordinates": [ 7.91545, 44.08773 ] } },
{ "type": "Feature", "properties": { "name": "Boissano", "population": "2184", "province": "SV", "state": "IT" }, "geometry": { "type": "Point", "coordinates": [ 8.22155, 44.13583 ] } },
{ "type": "Feature", "properties": { "name": "Calice Ligure", "population": "1089", "province": "SV", "state": "IT" }, "geometry": { "type": "Point", "coordinates": [ 8.29535, 44.20493 ] } },
{ "type": "Feature", "properties": { "name": "Casanova Lerrone", "population": "252", "province": "SV", "state": "IT" }, "geometry": { "type": "Point", "coordinates": [ 8.04715, 44.03213 ] } },
{ "type": "Feature", "properties": { "name": "Castelvecchio di Rocca Barbena", "population": "114", "province": "SV", "state": "IT" }, "geometry": { "type": "Point", "coordinates": [ 8.11665, 44.12983 ] } },
{ "type": "Feature", "properties": { "name": "Tovo San Giacomo", "population": "1399", "province": "SV", "state": "IT" }, "geometry": { "type": "Point", "coordinates": [ 8.27045, 44.17593 ] } },
{ "type": "Feature", "properties": { "name": "Cantalupa", "population": "2102", "province": "TO", "state": "IT" }, "geometry": { "type": "Point", "coordinates": [ 7.33032, 44.94594 ] } },
{ "type": "Feature", "properties": { "name": "Cercenasco", "population": "1795", "province": "TO", "state": "IT" }, "geometry": { "type": "Point", "coordinates": [ 7.49822, 44.86204 ] } },
{ "type": "Feature", "properties": { "name": "Chiusa di San Michele", "population": "1631", "province": "TO", "state": "IT" }, "geometry": { "type": "Point", "coordinates": [ 7.32711, 45.10424 ] } },
{ "type": "Feature", "properties": { "name": "Givoletto", "population": "3557", "province": "TO", "state": "IT" }, "geometry": { "type": "Point", "coordinates": [ 7.49642, 45.16225 ] } },
{ "type": "Feature", "properties": { "name": "San Didero", "population": "529", "province": "TO", "state": "IT" }, "geometry": { "type": "Point", "coordinates": [ 7.21301, 45.13544 ] } },
{ "type": "Feature", "properties": { "name": "San Germano Chisone", "population": "1474", "province": "TO", "state": "IT" }, "geometry": { "type": "Point", "coordinates": [ 7.23662, 44.90204 ] } },
{ "type": "Feature", "properties": { "name": "Bibiana", "population": "2360", "province": "TO", "state": "IT" }, "geometry": { "type": "Point", "coordinates": [ 7.28822, 44.79894 ] } },
{ "type": "Feature", "properties": { "name": "Bruzolo", "population": "1483", "province": "TO", "state": "IT" }, "geometry": { "type": "Point", "coordinates": [ 7.19463, 45.14093 ] } },
{ "type": "Feature", "properties": { "name": "Castagnole Piemonte", "population": "1847", "province": "TO", "state": "IT" }, "geometry": { "type": "Point", "coordinates": [ 7.56612, 44.89814 ] } },
{ "type": "Feature", "properties": { "name": "Frossasco", "population": "2464", "province": "TO", "state": "IT" }, "geometry": { "type": "Point", "coordinates": [ 7.37125, 44.92176 ] } },
{ "type": "Feature", "properties": { "name": "Garzigliana", "population": "275", "province": "TO", "state": "IT" }, "geometry": { "type": "Point", "coordinates": [ 7.37442, 44.83724 ] } },
{ "type": "Feature", "properties": { "name": "Macello", "population": "513", "province": "TO", "state": "IT" }, "geometry": { "type": "Point", "coordinates": [ 7.39802, 44.85114 ] } },
{ "type": "Feature", "properties": { "name": "Mattie", "population": "627", "province": "TO", "state": "IT" }, "geometry": { "type": "Point", "coordinates": [ 7.11511, 45.11814 ] } },
{ "type": "Feature", "properties": { "name": "Piobesi Torinese", "population": "3241", "province": "TO", "state": "IT" }, "geometry": { "type": "Point", "coordinates": [ 7.61012, 44.93294 ] } },
{ "type": "Feature", "properties": { "name": "Piscina", "population": "2710", "province": "TO", "state": "IT" }, "geometry": { "type": "Point", "coordinates": [ 7.42532, 44.91874 ] } },
{ "type": "Feature", "properties": { "name": "Porte", "population": "611", "province": "TO", "state": "IT" }, "geometry": { "type": "Point", "coordinates": [ 7.26982, 44.88714 ] } },
{ "type": "Feature", "properties": { "name": "Roletto", "population": "734", "province": "TO", "state": "IT" }, "geometry": { "type": "Point", "coordinates": [ 7.33232, 44.92444 ] } },
{ "type": "Feature", "properties": { "name": "Rorà", "population": "105", "province": "TO", "state": "IT" }, "geometry": { "type": "Point", "coordinates": [ 7.19902, 44.79214 ] } },
{ "type": "Feature", "properties": { "name": "Rosta", "population": "4391", "province": "TO", "state": "IT" }, "geometry": { "type": "Point", "coordinates": [ 7.46512, 45.06795 ] } },
{ "type": "Feature", "properties": { "name": "Usseaux", "population": "56", "province": "TO", "state": "IT" }, "geometry": { "type": "Point", "coordinates": [ 7.02851, 45.04894 ] } },
{ "type": "Feature", "properties": { "name": "Alto", "population": "91", "province": "CN", "state": "IT" }, "geometry": { "type": "Point", "coordinates": [ 8.00215, 44.10863 ] } },
{ "type": "Feature", "properties": { "name": "Cavallerleone", "population": "485", "province": "CN", "state": "IT" }, "geometry": { "type": "Point", "coordinates": [ 7.66393, 44.74014 ] } },
{ "type": "Feature", "properties": { "name": "Lagnasco", "population": "1083", "province": "CN", "state": "IT" }, "geometry": { "type": "Point", "coordinates": [ 7.55483, 44.62504 ] } },
{ "type": "Feature", "properties": { "name": "Monasterolo di Savigliano", "population": "1071", "province": "CN", "state": "IT" }, "geometry": { "type": "Point", "coordinates": [ 7.61953, 44.68634 ] } },
{ "type": "Feature", "properties": { "name": "Oncino", "population": "25", "province": "CN", "state": "IT" }, "geometry": { "type": "Point", "coordinates": [ 7.19032, 44.67683 ] } },
{ "type": "Feature", "properties": { "name": "Pagno", "population": "392", "province": "CN", "state": "IT" }, "geometry": { "type": "Point", "coordinates": [ 7.42572, 44.61173 ] } },
{ "type": "Feature", "properties": { "name": "Rifreddo", "population": "770", "province": "CN", "state": "IT" }, "geometry": { "type": "Point", "coordinates": [ 7.34642, 44.65073 ] } },
{ "type": "Feature", "properties": { "name": "Valmala", "population": "12", "province": "CN", "state": "IT" }, "geometry": { "type": "Point", "coordinates": [ 7.34603, 44.54423 ] } },
{ "type": "Feature", "properties": { "name": "Villanova Solaro", "population": "552", "province": "CN", "state": "IT" }, "geometry": { "type": "Point", "coordinates": [ 7.57443, 44.72994 ] } },
{ "type": "Feature", "properties": { "name": "Lombriasco", "population": "1007", "province": "TO", "state": "IT" }, "geometry": { "type": "Point", "coordinates": [ 7.63593, 44.84094 ] } },
{ "type": "Feature", "properties": { "name": "Lusernetta", "population": "287", "province": "TO", "state": "IT" }, "geometry": { "type": "Point", "coordinates": [ 7.24672, 44.80314 ] } },
{ "type": "Feature", "properties": { "name": "Osasco", "population": "645", "province": "TO", "state": "IT" }, "geometry": { "type": "Point", "coordinates": [ 7.34302, 44.84944 ] } },
{ "type": "Feature", "properties": { "name": "Osasio", "population": "856", "province": "TO", "state": "IT" }, "geometry": { "type": "Point", "coordinates": [ 7.60802, 44.87144 ] } },
{ "type": "Feature", "properties": { "name": "San Pietro Val Lemina", "population": "1247", "province": "TO", "state": "IT" }, "geometry": { "type": "Point", "coordinates": [ 7.31092, 44.90654 ] } },
{ "type": "Feature", "properties": { "name": "San Secondo di Pinerolo", "population": "1447", "province": "TO", "state": "IT" }, "geometry": { "type": "Point", "coordinates": [ 7.29842, 44.86644 ] } },
{ "type": "Feature", "properties": { "name": "Vaie", "population": "1450", "province": "TO", "state": "IT" }, "geometry": { "type": "Point", "coordinates": [ 7.28941, 45.10234 ] } },
{ "type": "Feature", "properties": { "name": "Villarbasse", "population": "2128", "province": "TO", "state": "IT" }, "geometry": { "type": "Point", "coordinates": [ 7.46842, 45.04514 ] } },
{ "type": "Feature", "properties": { "name": "Villar Dora", "population": "2305", "province": "TO", "state": "IT" }, "geometry": { "type": "Point", "coordinates": [ 7.38352, 45.11465 ] } },
{ "type": "Feature", "properties": { "name": "Brondello", "population": "95", "province": "CN", "state": "IT" }, "geometry": { "type": "Point", "coordinates": [ 7.40592, 44.60073 ] } },
{ "type": "Feature", "properties": { "name": "Cardè", "population": "786", "province": "CN", "state": "IT" }, "geometry": { "type": "Point", "coordinates": [ 7.47762, 44.74444 ] } },
{ "type": "Feature", "properties": { "name": "Castellar", "population": "102", "province": "CN", "state": "IT" }, "geometry": { "type": "Point", "coordinates": [ 7.43743, 44.62123 ] } },
{ "type": "Feature", "properties": { "name": "Faule", "population": "447", "province": "CN", "state": "IT" }, "geometry": { "type": "Point", "coordinates": [ 7.58512, 44.80624 ] } },
{ "type": "Feature", "properties": { "name": "Isasca", "population": "63", "province": "CN", "state": "IT" }, "geometry": { "type": "Point", "coordinates": [ 7.38162, 44.58763 ] } },
{ "type": "Feature", "properties": { "name": "Lesna", "population": "1723", "province": "TO", "state": "IT" }, "geometry": { "type": "Point", "coordinates": [ 7.62031, 45.05418 ] } },
{ "type": "Feature", "properties": { "name": "Gerbole", "population": "5868", "province": "TO", "state": "IT" }, "geometry": { "type": "Point", "coordinates": [ 7.5067, 45.00115 ] } },
{ "type": "Feature", "properties": { "name": "Airali", "population": "5619", "province": "TO", "state": "IT" }, "geometry": { "type": "Point", "coordinates": [ 7.25157, 44.8167 ] } },
{ "type": "Feature", "properties": { "name": "Vado Centro", "population": "5276", "province": "SV", "state": "IT" }, "geometry": { "type": "Point", "coordinates": [ 8.43225, 44.26857 ] } },
{ "type": "Feature", "properties": { "name": "Garino", "population": "3600", "province": "TO", "state": "IT" }, "geometry": { "type": "Point", "coordinates": [ 7.61728, 44.97325 ] } },
{ "type": "Feature", "properties": { "name": "Valleggia", "population": "3086", "province": "SV", "state": "IT" }, "geometry": { "type": "Point", "coordinates": [ 8.42967, 44.2808 ] } },
{ "type": "Feature", "properties": { "name": "Ferriera", "population": "2860", "province": "TO", "state": "IT" }, "geometry": { "type": "Point", "coordinates": [ 7.43017, 45.08382 ] } },
{ "type": "Feature", "properties": { "name": "Fornaci", "population": "2503", "province": "TO", "state": "IT" }, "geometry": { "type": "Point", "coordinates": [ 7.59869, 45.02816 ] } },
{ "type": "Feature", "properties": { "name": "Gerbido", "population": "2330", "province": "TO", "state": "IT" }, "geometry": { "type": "Point", "coordinates": [ 7.61408, 45.04449 ] } },
{ "type": "Feature", "properties": { "name": "Tagliaferro", "population": "2089", "province": "TO", "state": "IT" }, "geometry": { "type": "Point", "coordinates": [ 7.6643, 44.9785 ] } },
{ "type": "Feature", "properties": { "name": "Pasta", "population": "1986", "province": "TO", "state": "IT" }, "geometry": { "type": "Point", "coordinates": [ 7.55243, 45.01131 ] } },
{ "type": "Feature", "properties": { "name": "Montelera", "population": "1969", "province": "TO", "state": "IT" }, "geometry": { "type": "Point", "coordinates": [ 7.4429, 45.15429 ] } },
{ "type": "Feature", "properties": { "name": "Drubiaglio-Grangia", "population": "1966", "province": "TO", "state": "IT" }, "geometry": { "type": "Point", "coordinates": [ 7.4194, 45.09552 ] } },
{ "type": "Feature", "properties": { "name": "Baratte", "population": "1918", "province": "TO", "state": "IT" }, "geometry": { "type": "Point", "coordinates": [ 7.23643, 45.1116 ] } },
{ "type": "Feature", "properties": { "name": "Borgo Melano", "population": "1797", "province": "TO", "state": "IT" }, "geometry": { "type": "Point", "coordinates": [ 7.57656, 45.01578 ] } },
{ "type": "Feature", "properties": { "name": "San Fedele-Lusignano", "population": "1585", "province": "SV", "state": "IT" }, "geometry": { "type": "Point", "coordinates": [ 8.18078, 44.04559 ] } },
{ "type": "Feature", "properties": { "name": "Riva", "population": "1492", "province": "TO", "state": "IT" }, "geometry": { "type": "Point", "coordinates": [ 7.38189, 44.89252 ] } },
{ "type": "Feature", "properties": { "name": "Valle di Vado", "population": "1401", "province": "SV", "state": "IT" }, "geometry": { "type": "Point", "coordinates": [ 8.41397, 44.26183 ] } },
{ "type": "Feature", "properties": { "name": "Tetti Neirotti", "population": "1359", "province": "TO", "state": "IT" }, "geometry": { "type": "Point", "coordinates": [ 7.54077, 45.05338 ] } },
{ "type": "Feature", "properties": { "name": "Campochiesa", "population": "1239", "province": "SV", "state": "IT" }, "geometry": { "type": "Point", "coordinates": [ 8.19712, 44.07069 ] } },
{ "type": "Feature", "properties": { "name": "Villafranca", "population": "1168", "province": "SV", "state": "IT" }, "geometry": { "type": "Point", "coordinates": [ 8.10525, 44.03297 ] } },
{ "type": "Feature", "properties": { "name": "San Michele e Grato", "population": "1000", "province": "TO", "state": "IT" }, "geometry": { "type": "Point", "coordinates": [ 7.70097, 44.85799 ] } },
{ "type": "Feature", "properties": { "name": "Bastia", "population": "989", "province": "SV", "state": "IT" }, "geometry": { "type": "Point", "coordinates": [ 8.1722, 44.05763 ] } },
{ "type": "Feature", "properties": { "name": "Sant'Ermete", "population": "941", "province": "SV", "state": "IT" }, "geometry": { "type": "Point", "coordinates": [ 8.39992, 44.25606 ] } },
{ "type": "Feature", "properties": { "name": "Novaretto", "population": "927", "province": "TO", "state": "IT" }, "geometry": { "type": "Point", "coordinates": [ 7.3554, 45.11798 ] } },
{ "type": "Feature", "properties": { "name": "Pontepietra", "population": "815", "province": "TO", "state": "IT" }, "geometry": { "type": "Point", "coordinates": [ 7.31879, 45.04305 ] } },
{ "type": "Feature", "properties": { "name": "San Bernardino", "population": "736", "province": "TO", "state": "IT" }, "geometry": { "type": "Point", "coordinates": [ 7.3969, 45.0363 ] } },
{ "type": "Feature", "properties": { "name": "Pian Rosso-Costa", "population": "706", "province": "SV", "state": "IT" }, "geometry": { "type": "Point", "coordinates": [ 8.11979, 43.99246 ] } },
{ "type": "Feature", "properties": { "name": "Miradolo", "population": "656", "province": "TO", "state": "IT" }, "geometry": { "type": "Point", "coordinates": [ 7.304, 44.87381 ] } },
{ "type": "Feature", "properties": { "name": "Viotto", "population": "650", "province": "TO", "state": "IT" }, "geometry": { "type": "Point", "coordinates": [ 7.43946, 44.90318 ] } },
{ "type": "Feature", "properties": { "name": "Borgo Sant'Agata", "population": "624", "province": "IM", "state": "IT" }, "geometry": { "type": "Point", "coordinates": [ 8.00957, 43.90353 ] } },
{ "type": "Feature", "properties": { "name": "Feglino", "population": "582", "province": "SV", "state": "IT" }, "geometry": { "type": "Point", "coordinates": [ 8.32436, 44.21849 ] } },
{ "type": "Feature", "properties": { "name": "Corbiglia", "population": "565", "province": "TO", "state": "IT" }, "geometry": { "type": "Point", "coordinates": [ 7.49346, 45.04885 ] } },
{ "type": "Feature", "properties": { "name": "Gorra", "population": "510", "province": "SV", "state": "IT" }, "geometry": { "type": "Point", "coordinates": [ 8.29819, 44.18259 ] } },
{ "type": "Feature", "properties": { "name": "San Lorenzo", "population": "366", "province": "SV", "state": "IT" }, "geometry": { "type": "Point", "coordinates": [ 8.24424, 44.17302 ] } },
{ "type": "Feature", "properties": { "name": "Rossi", "population": "364", "province": "SV", "state": "IT" }, "geometry": { "type": "Point", "coordinates": [ 8.05884, 44.00029 ] } },
{ "type": "Feature", "properties": { "name": "Fleccia-Chianavasso", "population": "339", "province": "TO", "state": "IT" }, "geometry": { "type": "Point", "coordinates": [ 7.21474, 44.9467 ] } },
{ "type": "Feature", "properties": { "name": "Chiesa", "population": "218", "province": "SV", "state": "IT" }, "geometry": { "type": "Point", "coordinates": [ 8.10891, 44.07787 ] } },
{ "type": "Feature", "properties": { "name": "Gerbole-Zucche", "population": "2645", "province": "TO", "state": "IT" }, "geometry": { "type": "Point", "coordinates": [ 7.51671, 44.98605 ] } }
]
}
