{
"type": "FeatureCollection",
"name": "Municipalities",
"features": [
{ "type": "Feature", "properties": { "name": "Zafferana Etnea", "population": "9214", "province": "CT", "state": "IT" }, "geometry": { "type": "Point", "coordinates": [ 15.10432, 37.67895 ] } },
{ "type": "Feature", "properties": { "name": "Vizzini", "population": "5967", "province": "CT", "state": "IT" }, "geometry": { "type": "Point", "coordinates": [ 14.75712, 37.16188 ] } },
{ "type": "Feature", "properties": { "name": "Villasmundo", "population": "3008", "province": "SR", "state": "IT" }, "geometry": { "type": "Point", "coordinates": [ 15.09087, 37.25132 ] } },
{ "type": "Feature", "properties": { "name": "Villa San Giovanni", "population": "13747", "province": "RC", "state": "IT" }, "geometry": { "type": "Point", "coordinates": [ 15.63689, 38.21991 ] } },
{ "type": "Feature", "properties": { "name": "Villafranca Tirrena", "population": "8124", "province": "ME", "state": "IT" }, "geometry": { "type": "Point", "coordinates": [ 15.43885, 38.23952 ] } },
{ "type": "Feature", "properties": { "name": "Viagrande", "population": "6880", "province": "CT", "state": "IT" }, "geometry": { "type": "Point", "coordinates": [ 15.09794, 37.61032 ] } },
{ "type": "Feature", "properties": { "name": "Venetico Superiore", "population": "273", "province": "ME", "state": "IT" }, "geometry": { "type": "Point", "coordinates": [ 15.38119, 38.19307 ] } },
{ "type": "Feature", "properties": { "name": "Varapodio", "population": "2223", "province": "RC", "state": "IT" }, "geometry": { "type": "Point", "coordinates": [ 15.98347, 38.31633 ] } },
{ "type": "Feature", "properties": { "name": "Valdina", "population": "356", "province": "ME", "state": "IT" }, "geometry": { "type": "Point", "coordinates": [ 15.3698, 38.19351 ] } },
{ "type": "Feature", "properties": { "name": "Trunca", "population": "530", "province": "RC", "state": "IT" }, "geometry": { "type": "Point", "coordinates": [ 15.7505, 38.04642 ] } },
{ "type": "Feature", "properties": { "name": "Trecastagni", "population": "10135", "province": "CT", "state": "IT" }, "geometry": { "type": "Point", "coordinates": [ 15.07796, 37.61543 ] } },
{ "type": "Feature", "properties": { "name": "Torregrotta", "population": "7324", "province": "ME", "state": "IT" }, "geometry": { "type": "Point", "coordinates": [ 15.3501, 38.20262 ] } },
{ "type": "Feature", "properties": { "name": "Terreti", "population": "852", "province": "RC", "state": "IT" }, "geometry": { "type": "Point", "coordinates": [ 15.71149, 38.12079 ] } },
{ "type": "Feature", "properties": { "name": "Terranova Sappo Minulio", "population": "433", "province": "RC", "state": "IT" }, "geometry": { "type": "Point", "coordinates": [ 16.00747, 38.32175 ] } },
{ "type": "Feature", "properties": { "name": "Taurianova", "population": "11676", "province": "RC", "state": "IT" }, "geometry": { "type": "Point", "coordinates": [ 16.01306, 38.35525 ] } },
{ "type": "Feature", "properties": { "name": "Taormina", "population": "5790", "province": "ME", "state": "IT" }, "geometry": { "type": "Point", "coordinates": [ 15.28851, 37.85358 ] } },
{ "type": "Feature", "properties": { "name": "Staiti", "population": "273", "province": "RC", "state": "IT" }, "geometry": { "type": "Point", "coordinates": [ 16.03341, 37.99989 ] } },
{ "type": "Feature", "properties": { "name": "Sparta'", "population": "1315", "province": "ME", "state": "IT" }, "geometry": { "type": "Point", "coordinates": [ 15.53503, 38.29371 ] } },
{ "type": "Feature", "properties": { "name": "Spadafora", "population": "4547", "province": "ME", "state": "IT" }, "geometry": { "type": "Point", "coordinates": [ 15.38178, 38.22349 ] } },
{ "type": "Feature", "properties": { "name": "Sortino", "population": "8532", "province": "SR", "state": "IT" }, "geometry": { "type": "Point", "coordinates": [ 15.02998, 37.15881 ] } },
{ "type": "Feature", "properties": { "name": "Solarino", "population": "7220", "province": "SR", "state": "IT" }, "geometry": { "type": "Point", "coordinates": [ 15.11988, 37.10136 ] } },
{ "type": "Feature", "properties": { "name": "Solano Superiore", "population": "582", "province": "RC", "state": "IT" }, "geometry": { "type": "Point", "coordinates": [ 15.79928, 38.25231 ] } },
{ "type": "Feature", "properties": { "name": "Solano Inferiore", "population": "512", "province": "RC", "state": "IT" }, "geometry": { "type": "Point", "coordinates": [ 15.79991, 38.25743 ] } },
{ "type": "Feature", "properties": { "name": "Siracusa", "population": "97472", "province": "SR", "state": "IT" }, "geometry": { "type": "Point", "coordinates": [ 15.28664, 37.07542 ] } },
{ "type": "Feature", "properties": { "name": "Sinopoli", "population": "1972", "province": "RC", "state": "IT" }, "geometry": { "type": "Point", "coordinates": [ 15.8771, 38.26342 ] } },
{ "type": "Feature", "properties": { "name": "Seminara", "population": "1494", "province": "RC", "state": "IT" }, "geometry": { "type": "Point", "coordinates": [ 15.87025, 38.33603 ] } },
{ "type": "Feature", "properties": { "name": "Scordia", "population": "16645", "province": "CT", "state": "IT" }, "geometry": { "type": "Point", "coordinates": [ 14.84058, 37.29548 ] } },
{ "type": "Feature", "properties": { "name": "Scilla", "population": "3402", "province": "RC", "state": "IT" }, "geometry": { "type": "Point", "coordinates": [ 15.71837, 38.25201 ] } },
{ "type": "Feature", "properties": { "name": "Scido", "population": "927", "province": "RC", "state": "IT" }, "geometry": { "type": "Point", "coordinates": [ 15.93251, 38.24439 ] } },
{ "type": "Feature", "properties": { "name": "Scaletta Zanclea", "population": "2578", "province": "ME", "state": "IT" }, "geometry": { "type": "Point", "coordinates": [ 15.46769, 38.04796 ] } },
{ "type": "Feature", "properties": { "name": "Saponara", "population": "1473", "province": "ME", "state": "IT" }, "geometry": { "type": "Point", "coordinates": [ 15.43442, 38.19241 ] } },
{ "type": "Feature", "properties": { "name": "Santo Stefano in Aspromonte", "population": "766", "province": "RC", "state": "IT" }, "geometry": { "type": "Point", "coordinates": [ 15.78983, 38.16909 ] } },
{ "type": "Feature", "properties": { "name": "Sant'Eufemia d'Aspromonte", "population": "3552", "province": "RC", "state": "IT" }, "geometry": { "type": "Point", "coordinates": [ 15.85669, 38.26314 ] } },
{ "type": "Feature", "properties": { "name": "Santa Venerina", "population": "5000", "province": "CT", "state": "IT" }, "geometry": { "type": "Point", "coordinates": [ 15.1388, 37.69103 ] } },
{ "type": "Feature", "properties": { "name": "Santa Teresa di Riva", "population": "7977", "province": "ME", "state": "IT" }, "geometry": { "type": "Point", "coordinates": [ 15.36671, 37.94635 ] } },
{ "type": "Feature", "properties": { "name": "Santa Maria di Licodia", "population": "6810", "province": "CT", "state": "IT" }, "geometry": { "type": "Point", "coordinates": [ 14.89337, 37.61684 ] } },
{ "type": "Feature", "properties": { "name": "Santa Lucia del Mela", "population": "4084", "province": "ME", "state": "IT" }, "geometry": { "type": "Point", "coordinates": [ 15.28055, 38.14408 ] } },
{ "type": "Feature", "properties": { "name": "Sant'Alfio", "population": "1512", "province": "CT", "state": "IT" }, "geometry": { "type": "Point", "coordinates": [ 15.13952, 37.74393 ] } },
{ "type": "Feature", "properties": { "name": "Sant'Alessio Siculo", "population": "1265", "province": "ME", "state": "IT" }, "geometry": { "type": "Point", "coordinates": [ 15.34968, 37.92516 ] } },
{ "type": "Feature", "properties": { "name": "Sant'Alessio in Aspromonte", "population": "322", "province": "RC", "state": "IT" }, "geometry": { "type": "Point", "coordinates": [ 15.7573, 38.1722 ] } },
{ "type": "Feature", "properties": { "name": "Santa Cristina d'Aspromonte", "population": "820", "province": "RC", "state": "IT" }, "geometry": { "type": "Point", "coordinates": [ 15.96996, 38.2548 ] } },
{ "type": "Feature", "properties": { "name": "San Roberto", "population": "316", "province": "RC", "state": "IT" }, "geometry": { "type": "Point", "coordinates": [ 15.73594, 38.21114 ] } },
{ "type": "Feature", "properties": { "name": "San Procopio", "population": "514", "province": "RC", "state": "IT" }, "geometry": { "type": "Point", "coordinates": [ 15.89083, 38.28214 ] } },
{ "type": "Feature", "properties": { "name": "San Pier Niceto", "population": "1703", "province": "ME", "state": "IT" }, "geometry": { "type": "Point", "coordinates": [ 15.34982, 38.1605 ] } },
{ "type": "Feature", "properties": { "name": "San Paolo-Cannistrà", "population": "737", "province": "ME", "state": "IT" }, "geometry": { "type": "Point", "coordinates": [ 15.23333, 38.13333 ] } },
{ "type": "Feature", "properties": { "name": "San Pantaleone", "population": "556", "province": "RC", "state": "IT" }, "geometry": { "type": "Point", "coordinates": [ 15.84237, 37.98865 ] } },
{ "type": "Feature", "properties": { "name": "San Martino", "population": "1704", "province": "RC", "state": "IT" }, "geometry": { "type": "Point", "coordinates": [ 15.97634, 38.36157 ] } },
{ "type": "Feature", "properties": { "name": "San Luca", "population": "3699", "province": "RC", "state": "IT" }, "geometry": { "type": "Point", "coordinates": [ 16.06625, 38.14672 ] } },
{ "type": "Feature", "properties": { "name": "San Lorenzo", "population": "281", "province": "RC", "state": "IT" }, "geometry": { "type": "Point", "coordinates": [ 15.8344, 38.01097 ] } },
{ "type": "Feature", "properties": { "name": "San Gregorio di Catania", "population": "5100", "province": "CT", "state": "IT" }, "geometry": { "type": "Point", "coordinates": [ 15.1112, 37.56764 ] } },
{ "type": "Feature", "properties": { "name": "Samo", "population": "869", "province": "RC", "state": "IT" }, "geometry": { "type": "Point", "coordinates": [ 16.05933, 38.07399 ] } },
{ "type": "Feature", "properties": { "name": "San Giovanni la Punta", "population": "22046", "province": "CT", "state": "IT" }, "geometry": { "type": "Point", "coordinates": [ 15.09371, 37.5769 ] } },
{ "type": "Feature", "properties": { "name": "San Filippo Superiore", "population": "946", "province": "ME", "state": "IT" }, "geometry": { "type": "Point", "coordinates": [ 15.50075, 38.16549 ] } },
{ "type": "Feature", "properties": { "name": "San Filippo del Mela", "population": "2002", "province": "ME", "state": "IT" }, "geometry": { "type": "Point", "coordinates": [ 15.27338, 38.17007 ] } },
{ "type": "Feature", "properties": { "name": "San Carlo-Condofuri Marina", "population": "4161", "province": "RC", "state": "IT" }, "geometry": { "type": "Point", "coordinates": [ 15.87166, 37.93324 ] } },
{ "type": "Feature", "properties": { "name": "Saline Ioniche", "population": "2463", "province": "RC", "state": "IT" }, "geometry": { "type": "Point", "coordinates": [ 15.71943, 37.93957 ] } },
{ "type": "Feature", "properties": { "name": "Salice", "population": "961", "province": "ME", "state": "IT" }, "geometry": { "type": "Point", "coordinates": [ 15.49593, 38.24994 ] } },
{ "type": "Feature", "properties": { "name": "Rosolini", "population": "19721", "province": "SR", "state": "IT" }, "geometry": { "type": "Point", "coordinates": [ 14.95132, 36.82145 ] } },
{ "type": "Feature", "properties": { "name": "Rodì", "population": "1436", "province": "ME", "state": "IT" }, "geometry": { "type": "Point", "coordinates": [ 15.16933, 38.10823 ] } },
{ "type": "Feature", "properties": { "name": "Roccavaldina", "population": "709", "province": "ME", "state": "IT" }, "geometry": { "type": "Point", "coordinates": [ 15.37402, 38.18296 ] } },
{ "type": "Feature", "properties": { "name": "Roccalumera", "population": "3696", "province": "ME", "state": "IT" }, "geometry": { "type": "Point", "coordinates": [ 15.39439, 37.97554 ] } },
{ "type": "Feature", "properties": { "name": "Roccaforte del Greco", "population": "520", "province": "RC", "state": "IT" }, "geometry": { "type": "Point", "coordinates": [ 15.89198, 38.04751 ] } },
{ "type": "Feature", "properties": { "name": "Rizziconi", "population": "4108", "province": "RC", "state": "IT" }, "geometry": { "type": "Point", "coordinates": [ 15.95974, 38.40994 ] } },
{ "type": "Feature", "properties": { "name": "Riposto", "population": "11719", "province": "CT", "state": "IT" }, "geometry": { "type": "Point", "coordinates": [ 15.20576, 37.73183 ] } },
{ "type": "Feature", "properties": { "name": "Reggio Calabria", "population": "169140", "province": "RC", "state": "IT" }, "geometry": { "type": "Point", "coordinates": [ 15.66129, 38.11047 ] } },
{ "type": "Feature", "properties": { "name": "Ragusa", "population": "61380", "province": "RG", "state": "IT" }, "geometry": { "type": "Point", "coordinates": [ 14.72443, 36.92574 ] } },
{ "type": "Feature", "properties": { "name": "Prunella", "population": "657", "province": "RC", "state": "IT" }, "geometry": { "type": "Point", "coordinates": [ 15.79536, 37.94051 ] } },
{ "type": "Feature", "properties": { "name": "Priolo Gargallo", "population": "11724", "province": "SR", "state": "IT" }, "geometry": { "type": "Point", "coordinates": [ 15.18248, 37.15512 ] } },
{ "type": "Feature", "properties": { "name": "Platì", "population": "2076", "province": "RC", "state": "IT" }, "geometry": { "type": "Point", "coordinates": [ 16.0453, 38.22149 ] } },
{ "type": "Feature", "properties": { "name": "Piedimonte Etneo", "population": "3381", "province": "CT", "state": "IT" }, "geometry": { "type": "Point", "coordinates": [ 15.17516, 37.80677 ] } },
{ "type": "Feature", "properties": { "name": "Pellaro", "population": "13000", "province": "RC", "state": "IT" }, "geometry": { "type": "Point", "coordinates": [ 15.65, 38.01667 ] } },
{ "type": "Feature", "properties": { "name": "Pedara", "population": "12089", "province": "CT", "state": "IT" }, "geometry": { "type": "Point", "coordinates": [ 15.05672, 37.62386 ] } },
{ "type": "Feature", "properties": { "name": "Pedagaggi", "population": "2114", "province": "SR", "state": "IT" }, "geometry": { "type": "Point", "coordinates": [ 14.93654, 37.19182 ] } },
{ "type": "Feature", "properties": { "name": "Pavigliana", "population": "1088", "province": "RC", "state": "IT" }, "geometry": { "type": "Point", "coordinates": [ 15.72108, 38.10721 ] } },
{ "type": "Feature", "properties": { "name": "Paternò", "population": "46030", "province": "CT", "state": "IT" }, "geometry": { "type": "Point", "coordinates": [ 14.90254, 37.56675 ] } },
{ "type": "Feature", "properties": { "name": "Palmi", "population": "18556", "province": "RC", "state": "IT" }, "geometry": { "type": "Point", "coordinates": [ 15.85155, 38.35943 ] } },
{ "type": "Feature", "properties": { "name": "Palizzi Marina", "population": "1647", "province": "RC", "state": "IT" }, "geometry": { "type": "Point", "coordinates": [ 15.97927, 37.91995 ] } },
{ "type": "Feature", "properties": { "name": "Palizzi", "population": "307", "province": "RC", "state": "IT" }, "geometry": { "type": "Point", "coordinates": [ 15.9867, 37.96667 ] } },
{ "type": "Feature", "properties": { "name": "Palazzolo Acreide", "population": "8357", "province": "SR", "state": "IT" }, "geometry": { "type": "Point", "coordinates": [ 14.90593, 37.06261 ] } },
{ "type": "Feature", "properties": { "name": "Palagonia", "population": "16227", "province": "CT", "state": "IT" }, "geometry": { "type": "Point", "coordinates": [ 14.74474, 37.32955 ] } },
{ "type": "Feature", "properties": { "name": "Pagliara", "population": "462", "province": "ME", "state": "IT" }, "geometry": { "type": "Point", "coordinates": [ 15.35969, 37.98546 ] } },
{ "type": "Feature", "properties": { "name": "Nunziata", "population": "1606", "province": "CT", "state": "IT" }, "geometry": { "type": "Point", "coordinates": [ 15.17058, 37.75858 ] } },
{ "type": "Feature", "properties": { "name": "Novara di Sicilia", "population": "906", "province": "ME", "state": "IT" }, "geometry": { "type": "Point", "coordinates": [ 15.13134, 38.01538 ] } },
{ "type": "Feature", "properties": { "name": "Lido di Noto", "population": "741", "province": "SR", "state": "IT" }, "geometry": { "type": "Point", "coordinates": [ 15.11445, 36.85907 ] } },
{ "type": "Feature", "properties": { "name": "Noto", "population": "18421", "province": "SR", "state": "IT" }, "geometry": { "type": "Point", "coordinates": [ 15.06977, 36.89244 ] } },
{ "type": "Feature", "properties": { "name": "Nizza di Sicilia", "population": "3615", "province": "ME", "state": "IT" }, "geometry": { "type": "Point", "coordinates": [ 15.40956, 37.99081 ] } },
{ "type": "Feature", "properties": { "name": "Nicolosi", "population": "7061", "province": "CT", "state": "IT" }, "geometry": { "type": "Point", "coordinates": [ 15.02785, 37.62148 ] } },
{ "type": "Feature", "properties": { "name": "Motta Sant'Anastasia", "population": "9025", "province": "CT", "state": "IT" }, "geometry": { "type": "Point", "coordinates": [ 14.96628, 37.51205 ] } },
{ "type": "Feature", "properties": { "name": "Motta San Giovanni", "population": "1857", "province": "RC", "state": "IT" }, "geometry": { "type": "Point", "coordinates": [ 15.71262, 38.01027 ] } },
{ "type": "Feature", "properties": { "name": "Mosorrofa", "population": "1830", "province": "RC", "state": "IT" }, "geometry": { "type": "Point", "coordinates": [ 15.71259, 38.095 ] } },
{ "type": "Feature", "properties": { "name": "Monterosso Almo", "population": "2984", "province": "RG", "state": "IT" }, "geometry": { "type": "Point", "coordinates": [ 14.76498, 37.08884 ] } },
{ "type": "Feature", "properties": { "name": "Montebello Jonico", "population": "259", "province": "RC", "state": "IT" }, "geometry": { "type": "Point", "coordinates": [ 15.758, 37.98277 ] } },
{ "type": "Feature", "properties": { "name": "Mongiuffi Melia", "population": "783", "province": "ME", "state": "IT" }, "geometry": { "type": "Point", "coordinates": [ 15.27539, 37.90336 ] } },
{ "type": "Feature", "properties": { "name": "Monforte Marina", "population": "882", "province": "ME", "state": "IT" }, "geometry": { "type": "Point", "coordinates": [ 15.33681, 38.20612 ] } },
{ "type": "Feature", "properties": { "name": "Monforte San Giorgio", "population": "1365", "province": "ME", "state": "IT" }, "geometry": { "type": "Point", "coordinates": [ 15.38132, 38.15733 ] } },
{ "type": "Feature", "properties": { "name": "Molochio", "population": "2643", "province": "RC", "state": "IT" }, "geometry": { "type": "Point", "coordinates": [ 16.03141, 38.30789 ] } },
{ "type": "Feature", "properties": { "name": "Modica", "population": "41126", "province": "RG", "state": "IT" }, "geometry": { "type": "Point", "coordinates": [ 14.75966, 36.85868 ] } },
{ "type": "Feature", "properties": { "name": "Misterbianco", "population": "45542", "province": "CT", "state": "IT" }, "geometry": { "type": "Point", "coordinates": [ 15.00913, 37.51803 ] } },
{ "type": "Feature", "properties": { "name": "Mineo", "population": "4567", "province": "CT", "state": "IT" }, "geometry": { "type": "Point", "coordinates": [ 14.69381, 37.26494 ] } },
{ "type": "Feature", "properties": { "name": "Milo", "population": "619", "province": "CT", "state": "IT" }, "geometry": { "type": "Point", "coordinates": [ 15.11554, 37.7245 ] } },
{ "type": "Feature", "properties": { "name": "Militello in Val di Catania", "population": "7798", "province": "CT", "state": "IT" }, "geometry": { "type": "Point", "coordinates": [ 14.79342, 37.27594 ] } },
{ "type": "Feature", "properties": { "name": "Mili San Pietro", "population": "551", "province": "ME", "state": "IT" }, "geometry": { "type": "Point", "coordinates": [ 15.48857, 38.12641 ] } },
{ "type": "Feature", "properties": { "name": "Milazzo", "population": "31771", "province": "ME", "state": "IT" }, "geometry": { "type": "Point", "coordinates": [ 15.24023, 38.22008 ] } },
{ "type": "Feature", "properties": { "name": "Messina", "population": "219948", "province": "ME", "state": "IT" }, "geometry": { "type": "Point", "coordinates": [ 15.55256, 38.19394 ] } },
{ "type": "Feature", "properties": { "name": "Messignadi", "population": "1183", "province": "RC", "state": "IT" }, "geometry": { "type": "Point", "coordinates": [ 15.99642, 38.29964 ] } },
{ "type": "Feature", "properties": { "name": "Merì", "population": "1988", "province": "ME", "state": "IT" }, "geometry": { "type": "Point", "coordinates": [ 15.2497, 38.1663 ] } },
{ "type": "Feature", "properties": { "name": "Melito di Porto Salvo", "population": "9663", "province": "RC", "state": "IT" }, "geometry": { "type": "Point", "coordinates": [ 15.7499, 37.92629 ] } },
{ "type": "Feature", "properties": { "name": "Melilli", "population": "6593", "province": "SR", "state": "IT" }, "geometry": { "type": "Point", "coordinates": [ 15.1302, 37.17821 ] } },
{ "type": "Feature", "properties": { "name": "Melicuccà", "population": "953", "province": "RC", "state": "IT" }, "geometry": { "type": "Point", "coordinates": [ 15.88153, 38.30311 ] } },
{ "type": "Feature", "properties": { "name": "Mascalucia", "population": "29910", "province": "CT", "state": "IT" }, "geometry": { "type": "Point", "coordinates": [ 15.04964, 37.57465 ] } },
{ "type": "Feature", "properties": { "name": "Mascali", "population": "9377", "province": "CT", "state": "IT" }, "geometry": { "type": "Point", "coordinates": [ 15.19662, 37.75794 ] } },
{ "type": "Feature", "properties": { "name": "Marina di San Lorenzo", "population": "558", "province": "RC", "state": "IT" }, "geometry": { "type": "Point", "coordinates": [ 15.8317, 37.921 ] } },
{ "type": "Feature", "properties": { "name": "Mandanici", "population": "585", "province": "ME", "state": "IT" }, "geometry": { "type": "Point", "coordinates": [ 15.31669, 38.00356 ] } },
{ "type": "Feature", "properties": { "name": "Linguaglossa", "population": "5234", "province": "CT", "state": "IT" }, "geometry": { "type": "Point", "coordinates": [ 15.13774, 37.84243 ] } },
{ "type": "Feature", "properties": { "name": "Linera", "population": "2757", "province": "CT", "state": "IT" }, "geometry": { "type": "Point", "coordinates": [ 15.13653, 37.6638 ] } },
{ "type": "Feature", "properties": { "name": "Licodia Eubea", "population": "2921", "province": "CT", "state": "IT" }, "geometry": { "type": "Point", "coordinates": [ 14.70555, 37.15674 ] } },
{ "type": "Feature", "properties": { "name": "Letojanni", "population": "2699", "province": "ME", "state": "IT" }, "geometry": { "type": "Point", "coordinates": [ 15.30735, 37.8805 ] } },
{ "type": "Feature", "properties": { "name": "Lentini", "population": "24102", "province": "SR", "state": "IT" }, "geometry": { "type": "Point", "coordinates": [ 14.99737, 37.28556 ] } },
{ "type": "Feature", "properties": { "name": "Lazzaro", "population": "3041", "province": "RC", "state": "IT" }, "geometry": { "type": "Point", "coordinates": [ 15.66511, 37.97276 ] } },
{ "type": "Feature", "properties": { "name": "Larderia", "population": "2478", "province": "ME", "state": "IT" }, "geometry": { "type": "Point", "coordinates": [ 15.50287, 38.14101 ] } },
{ "type": "Feature", "properties": { "name": "Laganadi", "population": "245", "province": "RC", "state": "IT" }, "geometry": { "type": "Point", "coordinates": [ 15.74133, 38.17391 ] } },
{ "type": "Feature", "properties": { "name": "La Gala", "population": "844", "province": "ME", "state": "IT" }, "geometry": { "type": "Point", "coordinates": [ 15.23089, 38.11802 ] } },
{ "type": "Feature", "properties": { "name": "Itala", "population": "483", "province": "ME", "state": "IT" }, "geometry": { "type": "Point", "coordinates": [ 15.43706, 38.05144 ] } },
{ "type": "Feature", "properties": { "name": "Ispica", "population": "13725", "province": "RG", "state": "IT" }, "geometry": { "type": "Point", "coordinates": [ 14.9053, 36.78622 ] } },
{ "type": "Feature", "properties": { "name": "Grammichele", "population": "12844", "province": "CT", "state": "IT" }, "geometry": { "type": "Point", "coordinates": [ 14.63311, 37.21326 ] } },
{ "type": "Feature", "properties": { "name": "Gioia Tauro", "population": "18769", "province": "RC", "state": "IT" }, "geometry": { "type": "Point", "coordinates": [ 15.8975, 38.4251 ] } },
{ "type": "Feature", "properties": { "name": "Giarre", "population": "24138", "province": "CT", "state": "IT" }, "geometry": { "type": "Point", "coordinates": [ 15.18165, 37.7244 ] } },
{ "type": "Feature", "properties": { "name": "Giarratana", "population": "2932", "province": "RG", "state": "IT" }, "geometry": { "type": "Point", "coordinates": [ 14.79454, 37.04741 ] } },
{ "type": "Feature", "properties": { "name": "Giardini-Naxos", "population": "6802", "province": "ME", "state": "IT" }, "geometry": { "type": "Point", "coordinates": [ 15.26713, 37.82755 ] } },
{ "type": "Feature", "properties": { "name": "Gesso", "population": "549", "province": "ME", "state": "IT" }, "geometry": { "type": "Point", "coordinates": [ 15.46865, 38.23531 ] } },
{ "type": "Feature", "properties": { "name": "Gallodoro", "population": "378", "province": "ME", "state": "IT" }, "geometry": { "type": "Point", "coordinates": [ 15.29359, 37.90206 ] } },
{ "type": "Feature", "properties": { "name": "Gaggi", "population": "3093", "province": "ME", "state": "IT" }, "geometry": { "type": "Point", "coordinates": [ 15.22126, 37.85995 ] } },
{ "type": "Feature", "properties": { "name": "Furci Siculo", "population": "2956", "province": "ME", "state": "IT" }, "geometry": { "type": "Point", "coordinates": [ 15.37763, 37.96159 ] } },
{ "type": "Feature", "properties": { "name": "Francofonte", "population": "12635", "province": "SR", "state": "IT" }, "geometry": { "type": "Point", "coordinates": [ 14.87488, 37.22477 ] } },
{ "type": "Feature", "properties": { "name": "Francavilla di Sicilia", "population": "3866", "province": "ME", "state": "IT" }, "geometry": { "type": "Point", "coordinates": [ 15.13821, 37.90197 ] } },
{ "type": "Feature", "properties": { "name": "Fossato Ionico-Fossatello-San Luca Marcelluzzo", "population": "1062", "province": "RC", "state": "IT" }, "geometry": { "type": "Point", "coordinates": [ 15.76302, 38.01065 ] } },
{ "type": "Feature", "properties": { "name": "Forza d'Agrò", "population": "516", "province": "ME", "state": "IT" }, "geometry": { "type": "Point", "coordinates": [ 15.33409, 37.91539 ] } },
{ "type": "Feature", "properties": { "name": "Fondachello", "population": "752", "province": "ME", "state": "IT" }, "geometry": { "type": "Point", "coordinates": [ 15.35617, 38.21635 ] } },
{ "type": "Feature", "properties": { "name": "Floridia", "population": "22089", "province": "SR", "state": "IT" }, "geometry": { "type": "Point", "coordinates": [ 15.15332, 37.08343 ] } },
{ "type": "Feature", "properties": { "name": "Fiumefreddo Sicilia", "population": "9483", "province": "CT", "state": "IT" }, "geometry": { "type": "Point", "coordinates": [ 15.20919, 37.79146 ] } },
{ "type": "Feature", "properties": { "name": "Fiumedinisi", "population": "1198", "province": "ME", "state": "IT" }, "geometry": { "type": "Point", "coordinates": [ 15.38099, 38.02596 ] } },
{ "type": "Feature", "properties": { "name": "Ferla", "population": "2488", "province": "SR", "state": "IT" }, "geometry": { "type": "Point", "coordinates": [ 14.93881, 37.11978 ] } },
{ "type": "Feature", "properties": { "name": "Faro Superiore", "population": "2586", "province": "ME", "state": "IT" }, "geometry": { "type": "Point", "coordinates": [ 15.58268, 38.26794 ] } },
{ "type": "Feature", "properties": { "name": "Delianuova", "population": "3436", "province": "RC", "state": "IT" }, "geometry": { "type": "Point", "coordinates": [ 15.91714, 38.23587 ] } },
{ "type": "Feature", "properties": { "name": "Cosoleto", "population": "399", "province": "RC", "state": "IT" }, "geometry": { "type": "Point", "coordinates": [ 15.92814, 38.27483 ] } },
{ "type": "Feature", "properties": { "name": "Condrò", "population": "402", "province": "ME", "state": "IT" }, "geometry": { "type": "Point", "coordinates": [ 15.3266, 38.17375 ] } },
{ "type": "Feature", "properties": { "name": "Condofuri", "population": "237", "province": "RC", "state": "IT" }, "geometry": { "type": "Point", "coordinates": [ 15.8577, 38.00447 ] } },
{ "type": "Feature", "properties": { "name": "Chorio", "population": "549", "province": "RC", "state": "IT" }, "geometry": { "type": "Point", "coordinates": [ 15.81224, 37.98644 ] } },
{ "type": "Feature", "properties": { "name": "Chiaramonte Gulfi", "population": "4676", "province": "RG", "state": "IT" }, "geometry": { "type": "Point", "coordinates": [ 14.70302, 37.0305 ] } },
{ "type": "Feature", "properties": { "name": "Ceramida-Pellegrina", "population": "1418", "province": "RC", "state": "IT" }, "geometry": { "type": "Point", "coordinates": [ 15.82572, 38.29667 ] } },
{ "type": "Feature", "properties": { "name": "Centuripe", "population": "4910", "province": "EN", "state": "IT" }, "geometry": { "type": "Point", "coordinates": [ 14.74049, 37.62336 ] } },
{ "type": "Feature", "properties": { "name": "Catania", "population": "290927", "province": "CT", "state": "IT" }, "geometry": { "type": "Point", "coordinates": [ 15.07041, 37.49223 ] } },
{ "type": "Feature", "properties": { "name": "Castroreale", "population": "663", "province": "ME", "state": "IT" }, "geometry": { "type": "Point", "coordinates": [ 15.21012, 38.09857 ] } },
{ "type": "Feature", "properties": { "name": "Castiglione di Sicilia", "population": "1817", "province": "CT", "state": "IT" }, "geometry": { "type": "Point", "coordinates": [ 15.12156, 37.8815 ] } },
{ "type": "Feature", "properties": { "name": "Castelmola", "population": "475", "province": "ME", "state": "IT" }, "geometry": { "type": "Point", "coordinates": [ 15.27713, 37.85829 ] } },
{ "type": "Feature", "properties": { "name": "Castellace", "population": "508", "province": "RC", "state": "IT" }, "geometry": { "type": "Point", "coordinates": [ 15.9396, 38.31676 ] } },
{ "type": "Feature", "properties": { "name": "Castanea delle Furie", "population": "1888", "province": "ME", "state": "IT" }, "geometry": { "type": "Point", "coordinates": [ 15.52178, 38.26165 ] } },
{ "type": "Feature", "properties": { "name": "Cassibile", "population": "4573", "province": "SR", "state": "IT" }, "geometry": { "type": "Point", "coordinates": [ 15.20061, 36.97862 ] } },
{ "type": "Feature", "properties": { "name": "Cassaro", "population": "782", "province": "SR", "state": "IT" }, "geometry": { "type": "Point", "coordinates": [ 14.94697, 37.10571 ] } },
{ "type": "Feature", "properties": { "name": "Casignana", "population": "518", "province": "RC", "state": "IT" }, "geometry": { "type": "Point", "coordinates": [ 16.0899, 38.10187 ] } },
{ "type": "Feature", "properties": { "name": "Casalvecchio Siculo", "population": "423", "province": "ME", "state": "IT" }, "geometry": { "type": "Point", "coordinates": [ 15.32371, 37.9585 ] } },
{ "type": "Feature", "properties": { "name": "Carlentini", "population": "14900", "province": "SR", "state": "IT" }, "geometry": { "type": "Point", "coordinates": [ 15.0102, 37.28071 ] } },
{ "type": "Feature", "properties": { "name": "Cardeto", "population": "472", "province": "RC", "state": "IT" }, "geometry": { "type": "Point", "coordinates": [ 15.76577, 38.0844 ] } },
{ "type": "Feature", "properties": { "name": "Caraffa del Bianco", "population": "515", "province": "RC", "state": "IT" }, "geometry": { "type": "Point", "coordinates": [ 16.08766, 38.09259 ] } },
{ "type": "Feature", "properties": { "name": "Canicattini Bagni", "population": "6893", "province": "SR", "state": "IT" }, "geometry": { "type": "Point", "coordinates": [ 15.06388, 37.03171 ] } },
{ "type": "Feature", "properties": { "name": "Calatabiano", "population": "4102", "province": "CT", "state": "IT" }, "geometry": { "type": "Point", "coordinates": [ 15.23069, 37.82049 ] } },
{ "type": "Feature", "properties": { "name": "Calanna", "population": "214", "province": "RC", "state": "IT" }, "geometry": { "type": "Point", "coordinates": [ 15.72293, 38.18457 ] } },
{ "type": "Feature", "properties": { "name": "Buscemi", "population": "1063", "province": "SR", "state": "IT" }, "geometry": { "type": "Point", "coordinates": [ 14.88499, 37.08604 ] } },
{ "type": "Feature", "properties": { "name": "Buccheri", "population": "1860", "province": "SR", "state": "IT" }, "geometry": { "type": "Point", "coordinates": [ 14.85222, 37.12494 ] } },
{ "type": "Feature", "properties": { "name": "Brucoli", "population": "1098", "province": "SR", "state": "IT" }, "geometry": { "type": "Point", "coordinates": [ 15.18836, 37.28191 ] } },
{ "type": "Feature", "properties": { "name": "Bova Marina", "population": "3901", "province": "RC", "state": "IT" }, "geometry": { "type": "Point", "coordinates": [ 15.91736, 37.93503 ] } },
{ "type": "Feature", "properties": { "name": "Biancavilla", "population": "23188", "province": "CT", "state": "IT" }, "geometry": { "type": "Point", "coordinates": [ 14.86685, 37.64442 ] } },
{ "type": "Feature", "properties": { "name": "Belvedere", "population": "6263", "province": "SR", "state": "IT" }, "geometry": { "type": "Point", "coordinates": [ 15.21314, 37.08839 ] } },
{ "type": "Feature", "properties": { "name": "Belpasso", "population": "16319", "province": "CT", "state": "IT" }, "geometry": { "type": "Point", "coordinates": [ 14.97985, 37.59192 ] } },
{ "type": "Feature", "properties": { "name": "Barritteri", "population": "727", "province": "RC", "state": "IT" }, "geometry": { "type": "Point", "coordinates": [ 15.8489, 38.32964 ] } },
{ "type": "Feature", "properties": { "name": "Barcellona Pozzo di Gotto", "population": "34598", "province": "ME", "state": "IT" }, "geometry": { "type": "Point", "coordinates": [ 15.21469, 38.14772 ] } },
{ "type": "Feature", "properties": { "name": "Bagnara Calabra", "population": "8505", "province": "RC", "state": "IT" }, "geometry": { "type": "Point", "coordinates": [ 15.80591, 38.28778 ] } },
{ "type": "Feature", "properties": { "name": "Bagaladi", "population": "931", "province": "RC", "state": "IT" }, "geometry": { "type": "Point", "coordinates": [ 15.82152, 38.0256 ] } },
{ "type": "Feature", "properties": { "name": "Bafia", "population": "643", "province": "ME", "state": "IT" }, "geometry": { "type": "Point", "coordinates": [ 15.20529, 38.07447 ] } },
{ "type": "Feature", "properties": { "name": "Avola", "population": "28666", "province": "SR", "state": "IT" }, "geometry": { "type": "Point", "coordinates": [ 15.13937, 36.9084 ] } },
{ "type": "Feature", "properties": { "name": "Augusta", "population": "30723", "province": "SR", "state": "IT" }, "geometry": { "type": "Point", "coordinates": [ 15.22121, 37.24065 ] } },
{ "type": "Feature", "properties": { "name": "Antillo", "population": "912", "province": "ME", "state": "IT" }, "geometry": { "type": "Point", "coordinates": [ 15.24029, 37.97937 ] } },
{ "type": "Feature", "properties": { "name": "Alì", "population": "778", "province": "ME", "state": "IT" }, "geometry": { "type": "Point", "coordinates": [ 15.4191, 38.02678 ] } },
{ "type": "Feature", "properties": { "name": "Africo Vecchio", "population": "3349", "province": "RC", "state": "IT" }, "geometry": { "type": "Point", "coordinates": [ 15.98333, 38.06667 ] } },
{ "type": "Feature", "properties": { "name": "Adrano", "population": "34446", "province": "CT", "state": "IT" }, "geometry": { "type": "Point", "coordinates": [ 14.83283, 37.66358 ] } },
{ "type": "Feature", "properties": { "name": "Aci Sant'Antonio", "population": "10373", "province": "CT", "state": "IT" }, "geometry": { "type": "Point", "coordinates": [ 15.12294, 37.60499 ] } },
{ "type": "Feature", "properties": { "name": "Acireale", "population": "49477", "province": "CT", "state": "IT" }, "geometry": { "type": "Point", "coordinates": [ 15.16577, 37.60886 ] } },
{ "type": "Feature", "properties": { "name": "Aci Catena", "population": "24663", "province": "CT", "state": "IT" }, "geometry": { "type": "Point", "coordinates": [ 15.14165, 37.60614 ] } },
{ "type": "Feature", "properties": { "name": "Aci Castello", "population": "17588", "province": "CT", "state": "IT" }, "geometry": { "type": "Point", "coordinates": [ 15.14535, 37.55564 ] } },
{ "type": "Feature", "properties": { "name": "Aci Bonaccorsi", "population": "3143", "province": "CT", "state": "IT" }, "geometry": { "type": "Point", "coordinates": [ 15.10724, 37.5964 ] } },
{ "type": "Feature", "properties": { "name": "Motta Camastra", "population": "587", "province": "ME", "state": "IT" }, "geometry": { "type": "Point", "coordinates": [ 15.17008, 37.89431 ] } },
{ "type": "Feature", "properties": { "name": "Tremestieri Etneo", "population": "13657", "province": "CT", "state": "IT" }, "geometry": { "type": "Point", "coordinates": [ 15.07863, 37.56494 ] } },
{ "type": "Feature", "properties": { "name": "Gravina di Catania", "population": "26524", "province": "CT", "state": "IT" }, "geometry": { "type": "Point", "coordinates": [ 15.06292, 37.56085 ] } },
{ "type": "Feature", "properties": { "name": "Sant'Agata Li Battiati", "population": "9828", "province": "CT", "state": "IT" }, "geometry": { "type": "Point", "coordinates": [ 15.07999, 37.55745 ] } },
{ "type": "Feature", "properties": { "name": "Fiumara", "population": "1201", "province": "RC", "state": "IT" }, "geometry": { "type": "Point", "coordinates": [ 15.69369, 38.21267 ] } },
{ "type": "Feature", "properties": { "name": "Roghudi", "population": "1066", "province": "RC", "state": "IT" }, "geometry": { "type": "Point", "coordinates": [ 15.76537, 37.92499 ] } },
{ "type": "Feature", "properties": { "name": "Fondachelli-Fantina", "population": "1235", "province": "ME", "state": "IT" }, "geometry": { "type": "Point", "coordinates": [ 15.17519, 37.98476 ] } },
{ "type": "Feature", "properties": { "name": "Bova", "population": "238", "province": "RC", "state": "IT" }, "geometry": { "type": "Point", "coordinates": [ 15.9319, 37.99507 ] } },
{ "type": "Feature", "properties": { "name": "Gualtieri Sicaminò", "population": "1475", "province": "ME", "state": "IT" }, "geometry": { "type": "Point", "coordinates": [ 15.31699, 38.16267 ] } },
{ "type": "Feature", "properties": { "name": "Roccafiorita", "population": "228", "province": "ME", "state": "IT" }, "geometry": { "type": "Point", "coordinates": [ 15.26739, 37.93086 ] } },
{ "type": "Feature", "properties": { "name": "Savoca", "population": "156", "province": "ME", "state": "IT" }, "geometry": { "type": "Point", "coordinates": [ 15.34009, 37.95326 ] } },
{ "type": "Feature", "properties": { "name": "Camporotondo Etneo", "population": "2831", "province": "CT", "state": "IT" }, "geometry": { "type": "Point", "coordinates": [ 15.00319, 37.56565 ] } },
{ "type": "Feature", "properties": { "name": "San Pietro Clarenza", "population": "6886", "province": "CT", "state": "IT" }, "geometry": { "type": "Point", "coordinates": [ 15.02289, 37.56885 ] } },
{ "type": "Feature", "properties": { "name": "Valverde", "population": "4913", "province": "CT", "state": "IT" }, "geometry": { "type": "Point", "coordinates": [ 15.12419, 37.57695 ] } },
{ "type": "Feature", "properties": { "name": "Ragalna", "population": "3302", "province": "CT", "state": "IT" }, "geometry": { "type": "Point", "coordinates": [ 14.94698, 37.63455 ] } },
{ "type": "Feature", "properties": { "name": "Campo Calabro", "population": "4003", "province": "RC", "state": "IT" }, "geometry": { "type": "Point", "coordinates": [ 15.65919, 38.21607 ] } },
{ "type": "Feature", "properties": { "name": "Oppido Mamertina", "population": "3525", "province": "RC", "state": "IT" }, "geometry": { "type": "Point", "coordinates": [ 15.9839, 38.29337 ] } },
{ "type": "Feature", "properties": { "name": "Sant'Agata del Bianco", "population": "630", "province": "RC", "state": "IT" }, "geometry": { "type": "Point", "coordinates": [ 16.08251, 38.09242 ] } },
{ "type": "Feature", "properties": { "name": "Alì Terme", "population": "2440", "province": "ME", "state": "IT" }, "geometry": { "type": "Point", "coordinates": [ 15.42269, 38.00506 ] } },
{ "type": "Feature", "properties": { "name": "Graniti", "population": "1399", "province": "ME", "state": "IT" }, "geometry": { "type": "Point", "coordinates": [ 15.22459, 37.88986 ] } },
{ "type": "Feature", "properties": { "name": "Limina", "population": "900", "province": "ME", "state": "IT" }, "geometry": { "type": "Point", "coordinates": [ 15.27119, 37.94076 ] } },
{ "type": "Feature", "properties": { "name": "Pace del Mela", "population": "3376", "province": "ME", "state": "IT" }, "geometry": { "type": "Point", "coordinates": [ 15.30629, 38.17997 ] } },
{ "type": "Feature", "properties": { "name": "Rometta", "population": "867", "province": "ME", "state": "IT" }, "geometry": { "type": "Point", "coordinates": [ 15.41429, 38.17007 ] } },
{ "type": "Feature", "properties": { "name": "Aci Trezza", "population": "5000", "province": "CT", "state": "IT" }, "geometry": { "type": "Point", "coordinates": [ 15.16136, 37.56385 ] } },
{ "type": "Feature", "properties": { "name": "Fontane Bianche", "population": "889", "province": "SR", "state": "IT" }, "geometry": { "type": "Point", "coordinates": [ 15.20929, 36.96628 ] } },
{ "type": "Feature", "properties": { "name": "Vambolieri", "population": "1546", "province": "CT", "state": "IT" }, "geometry": { "type": "Point", "coordinates": [ 15.16019, 37.57417 ] } },
{ "type": "Feature", "properties": { "name": "Acitrezza", "population": "5000", "province": "CT", "state": "IT" }, "geometry": { "type": "Point", "coordinates": [ 15.1599, 37.5596 ] } },
{ "type": "Feature", "properties": { "name": "Carruba", "population": "1099", "province": "CT", "state": "IT" }, "geometry": { "type": "Point", "coordinates": [ 15.18815, 37.69062 ] } },
{ "type": "Feature", "properties": { "name": "Sant'Anna", "population": "558", "province": "CT", "state": "IT" }, "geometry": { "type": "Point", "coordinates": [ 15.20396, 37.74459 ] } },
{ "type": "Feature", "properties": { "name": "Protonotaro", "population": "602", "province": "ME", "state": "IT" }, "geometry": { "type": "Point", "coordinates": [ 15.19238, 38.12077 ] } },
{ "type": "Feature", "properties": { "name": "Canalicchio", "population": "7329", "province": "CT", "state": "IT" }, "geometry": { "type": "Point", "coordinates": [ 15.09645, 37.54097 ] } },
{ "type": "Feature", "properties": { "name": "Rometta Marea", "population": "4835", "province": "ME", "state": "IT" }, "geometry": { "type": "Point", "coordinates": [ 15.40955, 38.23264 ] } },
{ "type": "Feature", "properties": { "name": "Chianchitta-Trappitello", "population": "4029", "province": "ME", "state": "IT" }, "geometry": { "type": "Point", "coordinates": [ 15.25077, 37.82984 ] } },
{ "type": "Feature", "properties": { "name": "Carrubazza-Motta", "population": "3170", "province": "CT", "state": "IT" }, "geometry": { "type": "Point", "coordinates": [ 15.10819, 37.55323 ] } },
{ "type": "Feature", "properties": { "name": "Cerza", "population": "3124", "province": "CT", "state": "IT" }, "geometry": { "type": "Point", "coordinates": [ 15.1051, 37.54297 ] } },
{ "type": "Feature", "properties": { "name": "Giammoro", "population": "2382", "province": "ME", "state": "IT" }, "geometry": { "type": "Point", "coordinates": [ 15.30666, 38.20372 ] } },
{ "type": "Feature", "properties": { "name": "Maugeri", "population": "2285", "province": "CT", "state": "IT" }, "geometry": { "type": "Point", "coordinates": [ 15.11785, 37.58608 ] } },
{ "type": "Feature", "properties": { "name": "Città Giardino", "population": "2082", "province": "SR", "state": "IT" }, "geometry": { "type": "Point", "coordinates": [ 15.21172, 37.10444 ] } },
{ "type": "Feature", "properties": { "name": "Villaggio del Pino-Le Ginestre", "population": "1980", "province": "CT", "state": "IT" }, "geometry": { "type": "Point", "coordinates": [ 15.00377, 37.58292 ] } },
{ "type": "Feature", "properties": { "name": "San Giovanni", "population": "1789", "province": "CT", "state": "IT" }, "geometry": { "type": "Point", "coordinates": [ 15.15887, 37.73538 ] } },
{ "type": "Feature", "properties": { "name": "Campanella-Gianforma", "population": "1750", "province": "RG", "state": "IT" }, "geometry": { "type": "Point", "coordinates": [ 14.8336, 36.9263 ] } },
{ "type": "Feature", "properties": { "name": "Guidomandri Marina", "population": "1735", "province": "ME", "state": "IT" }, "geometry": { "type": "Point", "coordinates": [ 15.46303, 38.04528 ] } },
{ "type": "Feature", "properties": { "name": "Palazzolo", "population": "1608", "province": "CT", "state": "IT" }, "geometry": { "type": "Point", "coordinates": [ 14.92987, 37.56224 ] } },
{ "type": "Feature", "properties": { "name": "Belvedere-Piano Tavola", "population": "1574", "province": "CT", "state": "IT" }, "geometry": { "type": "Point", "coordinates": [ 14.98786, 37.52955 ] } },
{ "type": "Feature", "properties": { "name": "Lavinaio-Monterosso", "population": "1398", "province": "CT", "state": "IT" }, "geometry": { "type": "Point", "coordinates": [ 15.10462, 37.64097 ] } },
{ "type": "Feature", "properties": { "name": "Carrozziere", "population": "1394", "province": "SR", "state": "IT" }, "geometry": { "type": "Point", "coordinates": [ 15.27195, 37.0376 ] } },
{ "type": "Feature", "properties": { "name": "Pennisi", "population": "1143", "province": "CT", "state": "IT" }, "geometry": { "type": "Point", "coordinates": [ 15.12385, 37.64945 ] } },
{ "type": "Feature", "properties": { "name": "Amato", "population": "1086", "province": "RC", "state": "IT" }, "geometry": { "type": "Point", "coordinates": [ 15.96097, 38.37355 ] } },
{ "type": "Feature", "properties": { "name": "Pasteria-Lapide", "population": "1081", "province": "CT", "state": "IT" }, "geometry": { "type": "Point", "coordinates": [ 15.22818, 37.81012 ] } },
{ "type": "Feature", "properties": { "name": "Archi", "population": "968", "province": "ME", "state": "IT" }, "geometry": { "type": "Point", "coordinates": [ 15.27424, 38.19475 ] } },
{ "type": "Feature", "properties": { "name": "Giampilieri", "population": "918", "province": "ME", "state": "IT" }, "geometry": { "type": "Point", "coordinates": [ 15.46991, 38.06821 ] } },
{ "type": "Feature", "properties": { "name": "Curcuraci", "population": "894", "province": "ME", "state": "IT" }, "geometry": { "type": "Point", "coordinates": [ 15.56899, 38.25983 ] } },
{ "type": "Feature", "properties": { "name": "Vaccarizzo-Delfino", "population": "882", "province": "CT", "state": "IT" }, "geometry": { "type": "Point", "coordinates": [ 15.08096, 37.37325 ] } },
{ "type": "Feature", "properties": { "name": "Scarcelli", "population": "868", "province": "ME", "state": "IT" }, "geometry": { "type": "Point", "coordinates": [ 15.43164, 38.20527 ] } },
{ "type": "Feature", "properties": { "name": "Rodia-S.saba", "population": "815", "province": "ME", "state": "IT" }, "geometry": { "type": "Point", "coordinates": [ 15.48551, 38.27316 ] } },
{ "type": "Feature", "properties": { "name": "San Nicola", "population": "739", "province": "RC", "state": "IT" }, "geometry": { "type": "Point", "coordinates": [ 15.69381, 38.21199 ] } },
{ "type": "Feature", "properties": { "name": "Monterosso", "population": "731", "province": "CT", "state": "IT" }, "geometry": { "type": "Point", "coordinates": [ 15.09128, 37.64282 ] } },
{ "type": "Feature", "properties": { "name": "Sambatello", "population": "703", "province": "RC", "state": "IT" }, "geometry": { "type": "Point", "coordinates": [ 15.69258, 38.17863 ] } },
{ "type": "Feature", "properties": { "name": "Rocchenere", "population": "701", "province": "ME", "state": "IT" }, "geometry": { "type": "Point", "coordinates": [ 15.37618, 37.97428 ] } },
{ "type": "Feature", "properties": { "name": "Gallina", "population": "700", "province": "SR", "state": "IT" }, "geometry": { "type": "Point", "coordinates": [ 15.17408, 36.93462 ] } },
{ "type": "Feature", "properties": { "name": "Villaggio Gulfi", "population": "686", "province": "RG", "state": "IT" }, "geometry": { "type": "Point", "coordinates": [ 14.68221, 37.03769 ] } },
{ "type": "Feature", "properties": { "name": "Caredia-Lacco", "population": "669", "province": "RC", "state": "IT" }, "geometry": { "type": "Point", "coordinates": [ 15.79663, 37.95611 ] } },
{ "type": "Feature", "properties": { "name": "Arenella", "population": "664", "province": "SR", "state": "IT" }, "geometry": { "type": "Point", "coordinates": [ 15.26195, 37.00325 ] } },
{ "type": "Feature", "properties": { "name": "Roccazzo", "population": "640", "province": "RG", "state": "IT" }, "geometry": { "type": "Point", "coordinates": [ 14.62948, 37.05191 ] } },
{ "type": "Feature", "properties": { "name": "Rina", "population": "634", "province": "ME", "state": "IT" }, "geometry": { "type": "Point", "coordinates": [ 15.33403, 37.94256 ] } },
{ "type": "Feature", "properties": { "name": "Colelli", "population": "594", "province": "RC", "state": "IT" }, "geometry": { "type": "Point", "coordinates": [ 15.72186, 38.21164 ] } },
{ "type": "Feature", "properties": { "name": "Solicchiata", "population": "569", "province": "CT", "state": "IT" }, "geometry": { "type": "Point", "coordinates": [ 15.06487, 37.86419 ] } },
{ "type": "Feature", "properties": { "name": "Acquaficara", "population": "561", "province": "ME", "state": "IT" }, "geometry": { "type": "Point", "coordinates": [ 15.20711, 38.12907 ] } },
{ "type": "Feature", "properties": { "name": "Masella", "population": "552", "province": "RC", "state": "IT" }, "geometry": { "type": "Point", "coordinates": [ 15.75413, 37.96584 ] } },
{ "type": "Feature", "properties": { "name": "Evangelisti-Rubino", "population": "540", "province": "ME", "state": "IT" }, "geometry": { "type": "Point", "coordinates": [ 15.17324, 37.98412 ] } },
{ "type": "Feature", "properties": { "name": "Santa Venera-Portosalvo", "population": "538", "province": "CT", "state": "IT" }, "geometry": { "type": "Point", "coordinates": [ 15.17223, 37.77897 ] } },
{ "type": "Feature", "properties": { "name": "Fanusa", "population": "524", "province": "SR", "state": "IT" }, "geometry": { "type": "Point", "coordinates": [ 15.28007, 37.02252 ] } },
{ "type": "Feature", "properties": { "name": "Melia", "population": "374", "province": "ME", "state": "IT" }, "geometry": { "type": "Point", "coordinates": [ 15.27499, 37.90384 ] } },
{ "type": "Feature", "properties": { "name": "Natile Nuovo", "population": "1236", "province": "RC", "state": "IT" }, "geometry": { "type": "Point", "coordinates": [ 16.08527, 38.18583 ] } },
{ "type": "Feature", "properties": { "name": "Carlentini Nord", "population": "944", "province": "SR", "state": "IT" }, "geometry": { "type": "Point", "coordinates": [ 15.00876, 37.29342 ] } },
{ "type": "Feature", "properties": { "name": "Itala Marina", "population": "876", "province": "ME", "state": "IT" }, "geometry": { "type": "Point", "coordinates": [ 15.45272, 38.03683 ] } },
{ "type": "Feature", "properties": { "name": "San Pier Marina", "population": "591", "province": "ME", "state": "IT" }, "geometry": { "type": "Point", "coordinates": [ 15.32578, 38.19988 ] } },
{ "type": "Feature", "properties": { "name": "Mazzeo", "population": "569", "province": "ME", "state": "IT" }, "geometry": { "type": "Point", "coordinates": [ 15.3008, 37.87217 ] } },
{ "type": "Feature", "properties": { "name": "Chianchitta-Pallio", "population": "2267", "province": "ME", "state": "IT" }, "geometry": { "type": "Point", "coordinates": [ 15.25317, 37.82108 ] } },
{ "type": "Feature", "properties": { "name": "Saponara Marittima", "population": "1594", "province": "ME", "state": "IT" }, "geometry": { "type": "Point", "coordinates": [ 15.42621, 38.23121 ] } },
{ "type": "Feature", "properties": { "name": "Santa Maria la Stella", "population": "4467", "province": "CT", "state": "IT" }, "geometry": { "type": "Point", "coordinates": [ 15.12071, 37.62349 ] } },
{ "type": "Feature", "properties": { "name": "Venetico Marina", "population": "3322", "province": "ME", "state": "IT" }, "geometry": { "type": "Point", "coordinates": [ 15.36648, 38.21928 ] } }
]
}
